[{"index":0,"Itinerary":[[1.2931,103.852],"Adventure Cove Waterpark","Aromas of India","1.2931,103.8520"],"POICategories":[["NA","NA","NA"],["food","Entertainment","Waterpark"],["food","NA","NA"],["NA","NA","NA"]],"VehicleMode":"Public Transport","Coords":[[1.2931,103.852],[1.254989094,103.8202848416],[1.308451045,103.8511550217],[1.2931,103.852]],"StartTimePOI":[["Fri, 22 Sep 2023 10:00:00 GMT"],["Fri, 22 Sep 2023 11:47:30 GMT"],["Fri, 22 Sep 2023 13:26:05 GMT"]],"ReachTimePOI":[["Fri, 22 Sep 2023 10:47:30 GMT"],["Fri, 22 Sep 2023 12:26:05 GMT"],["Fri, 22 Sep 2023 13:59:28 GMT"]],"LeaveTimePOI":[["Fri, 22 Sep 2023 11:47:30 GMT"],["Fri, 22 Sep 2023 13:26:05 GMT"],["Fri, 22 Sep 2023 14:59:28 GMT"]],"TotalTime":"4h 59min","Total distance(km)":1.6574332556,"Routes":[{"debugOutput":{"pathCalculationTime":52,"pathTimes":[25,22,5],"precalculationTime":28,"renderingTime":0,"timedOut":false,"totalTime":80},"elevationMetadata":{"ellipsoidToGeoidDifference":7.3773084369,"geoidElevation":false},"plan":{"date":1700648340000,"from":{"lat":1.2931,"lon":103.852,"name":"Origin","orig":"","vertexType":"NORMAL"},"itineraries":[{"duration":1422,"elevationGained":0,"elevationLost":0,"endTime":1700650227000,"fare":"info unavailable","legs":[{"agencyTimeZoneOffset":28800000,"arrivalDelay":0,"departureDelay":0,"distance":86.153,"duration":65,"endTime":1700648870000,"from":{"departure":1700648805000,"lat":1.2931,"lon":103.852,"name":"Origin","orig":"","vertexType":"NORMAL"},"interlineWithPreviousLeg":false,"intermediateStops":[],"legGeometry":{"length":4,"points":"yp{F}qzxRXm@[k@f@]"},"mode":"WALK","numIntermediateStops":1,"pathway":false,"realTime":false,"rentedBike":false,"route":"","startTime":1700648805000,"steps":[{"absoluteDirection":"SOUTHEAST","area":false,"bogusName":false,"distance":86.153,"elevation":[],"lat":1.2930931031,"lon":103.8519960097,"relativeDirection":"DEPART","stayOn":false,"streetName":"path"}],"to":{"arrival":1700648870000,"departure":1700648871000,"lat":1.2929049982,"lon":103.8525965871,"name":"path","vertexType":"NORMAL"},"transitLeg":false},{"agencyTimeZoneOffset":28800000,"arrivalDelay":0,"departureDelay":0,"distance":134.8224085395,"duration":10,"endTime":1700648881000,"from":{"arrival":1700648870000,"departure":1700648871000,"lat":1.2929048315,"lon":103.852596374,"name":"CITY HALL MRT STATION","vertexType":"NORMAL"},"interlineWithPreviousLeg":false,"intermediateStops":[],"legGeometry":{"length":2,"points":"so{FuuzxRnAbF"},"mode":"WALK","numIntermediateStops":1,"pathway":false,"realTime":false,"rentedBike":false,"route":"","startTime":1700648871000,"steps":[{"absoluteDirection":"WEST","area":false,"bogusName":false,"distance":134.8224085395,"elevation":[],"lat":1.2929048315,"lon":103.852596374,"relativeDirection":"HARD_RIGHT","stayOn":false,"streetName":"Transfer"}],"to":{"arrival":1700648881000,"departure":1700648881000,"lat":1.2925000652,"lon":103.851453155,"name":"CITY HALL STN EXIT B","stopCode":"04167","stopId":"FERRY:04167","stopIndex":20,"stopSequence":21,"vertexType":"TRANSIT"},"transitLeg":false},{"agencyId":"SBST","agencyName":"SBS Transit","agencyTimeZoneOffset":28800000,"agencyUrl":"http:\/\/www.sbstransit.com.sg\/","arrivalDelay":0,"departureDelay":0,"distance":4879.2597086955,"duration":1109,"endTime":1700649990000,"from":{"arrival":1700648881000,"departure":1700648881000,"lat":1.2925000652,"lon":103.851453155,"name":"CITY HALL STN EXIT B","stopCode":"04167","stopId":"FERRY:04167","stopIndex":20,"stopSequence":21,"vertexType":"TRANSIT"},"interlineWithPreviousLeg":false,"intermediateStops":[{"arrival":1700648924000,"departure":1700648954000,"lat":1.2904303936,"lon":103.850262165,"name":"OPP THE TREASURY","stopCode":"04249","stopId":"FERRY:04249","stopIndex":21,"stopSequence":22,"vertexType":"TRANSIT"},{"arrival":1700649012000,"departure":1700649042000,"lat":1.2871228336,"lon":103.848197808,"name":"BOAT QUAY","stopCode":"05029","stopId":"FERRY:05029","stopIndex":22,"stopSequence":23,"vertexType":"TRANSIT"},{"arrival":1700649100000,"departure":1700649130000,"lat":1.2845145585,"lon":103.846660493,"name":"OPP HONG LIM CPLX","stopCode":"05199","stopId":"FERRY:05199","stopIndex":23,"stopSequence":24,"vertexType":"TRANSIT"},{"arrival":1700649202000,"departure":1700649232000,"lat":1.2808918125,"lon":103.844568156,"name":"MAXWELL STN EXIT 2","stopCode":"05269","stopId":"FERRY:05269","stopIndex":24,"stopSequence":25,"vertexType":"TRANSIT"},{"arrival":1700649289000,"departure":1700649319000,"lat":1.2776941305,"lon":103.843706544,"name":"BEF CRAIG RD","stopCode":"05429","stopId":"FERRY:05429","stopIndex":25,"stopSequence":26,"vertexType":"TRANSIT"},{"arrival":1700649362000,"departure":1700649392000,"lat":1.2747066946,"lon":103.843186838,"name":"THE AMARA","stopCode":"05419","stopId":"FERRY:05419","stopIndex":26,"stopSequence":27,"vertexType":"TRANSIT"},{"arrival":1700649421000,"departure":1700649451000,"lat":1.2740135055,"lon":103.842049292,"name":"TOWER 15","stopCode":"05431","stopId":"FERRY:05431","stopIndex":27,"stopSequence":28,"vertexType":"TRANSIT"},{"arrival":1700649494000,"departure":1700649524000,"lat":1.2723842122,"lon":103.840939122,"name":"OPP CUSTOMS PORT BR HQ","stopCode":"05649","stopId":"FERRY:05649","stopIndex":28,"stopSequence":29,"vertexType":"TRANSIT"},{"arrival":1700649568000,"departure":1700649598000,"lat":1.2723126979,"lon":103.838620357,"name":"OPP FORMER RAILWAY STN","stopCode":"14061","stopId":"FERRY:14061","stopIndex":29,"stopSequence":30,"vertexType":"TRANSIT"},{"arrival":1700649670000,"departure":1700649700000,"lat":1.2722034241,"lon":103.833902586,"name":"KEPPEL WORKSHOP","stopCode":"14071","stopId":"FERRY:14071","stopIndex":30,"stopSequence":31,"vertexType":"TRANSIT"},{"arrival":1700649757000,"departure":1700649787000,"lat":1.2707061598,"lon":103.830616058,"name":"TG PAGAR DP BLK F5","stopCode":"14081","stopId":"FERRY:14081","stopIndex":31,"stopSequence":32,"vertexType":"TRANSIT"},{"arrival":1700649845000,"departure":1700649875000,"lat":1.268375,"lon":103.828258056,"name":"OPP KEPPEL DP BLK 517","stopCode":"14101","stopId":"FERRY:14101","stopIndex":32,"stopSequence":33,"vertexType":"TRANSIT"}],"legGeometry":{"length":167,"points":"im{FgnzxRTLv@`@??fAh@rExBHD\\RHD??x@d@pBfAd@XhB|@pAv@l@VVLPJz@`@JFjAj@D@VNHDhBz@V@zC~An@ZtAt@LNjAf@B@FB^R??NHD@VLh@Xt@^pAp@bAd@^R|Av@TJDBv@^RJ~@d@ZPXNHDHFFDF@B@rB|@RV`BXTBp@Hl@?|@It@BpBf@b@JLBJ@????B?@?~@B|@HtCX~BXtAPPBj@HZ@L?D@X@xAMDzEBdCZMvAk@p@_@^S\\IR@VJPHVHBdC?@?@@b@?NDvDBnBBtB?@???B@Z?HFbFFzJCxB@L?@?@?@?@?B?B?BBbD?@?????@DhGRl@@??@@BRn@JVPXjDdEf@v@B@??@@BDV^z@rABBBBrDzDxAdAhBpA????????d@Zd@f@rAtAhC|CLNJJ`AdA\\d@???@f@t@b@bAZxARtCDp@@TR|H?J"},"mode":"BUS","numIntermediateStops":13,"pathway":false,"realTime":false,"rentedBike":false,"route":"145","routeId":"145","routeLongName":"SBST BUS 145","routeShortName":"145","routeType":3,"serviceDate":"20231122","startTime":1700648881000,"steps":[],"to":{"arrival":1700649990000,"departure":1700649990000,"lat":1.2655242147,"lon":103.822113268,"name":"HARBOURFRONT STN\/VIVOCITY","stopCode":"14141","stopId":"FERRY:14141","stopIndex":33,"stopSequence":34,"vertexType":"TRANSIT"},"transitLeg":true,"tripId":"145-1-3007"},{"agencyTimeZoneOffset":28800000,"arrivalDelay":0,"departureDelay":0,"distance":75.6437011005,"duration":10,"endTime":1700650000000,"from":{"arrival":1700649990000,"departure":1700649990000,"lat":1.2655242147,"lon":103.822113268,"name":"HARBOURFRONT STN\/VIVOCITY","stopCode":"14141","stopId":"FERRY:14141","stopIndex":33,"stopSequence":34,"vertexType":"TRANSIT"},"interlineWithPreviousLeg":false,"intermediateStops":[],"legGeometry":{"length":2,"points":"odvFewtxR|A`B"},"mode":"WALK","numIntermediateStops":1,"pathway":false,"realTime":false,"rentedBike":false,"route":"","startTime":1700649990000,"steps":[{"absoluteDirection":"SOUTHWEST","area":false,"bogusName":false,"distance":75.6437011005,"elevation":[],"lat":1.2655242147,"lon":103.822113268,"relativeDirection":"DEPART","stayOn":false,"streetName":"Transfer"}],"to":{"arrival":1700650000000,"departure":1700650110000,"lat":1.2650508426,"lon":103.821624581,"name":"VIVOCITY STATION","stopCode":"S1","stopId":"FERRY:S1","stopIndex":0,"stopSequence":1,"vertexType":"TRANSIT"},"transitLeg":false},{"agencyId":"SMRT","agencyName":"SMRT Corporation","agencyTimeZoneOffset":28800000,"agencyUrl":"http:\/\/www.smrt.com.sg\/","arrivalDelay":0,"departureDelay":0,"distance":1071.3220191951,"duration":117,"endTime":1700650227000,"from":{"arrival":1700650000000,"departure":1700650110000,"lat":1.2650508426,"lon":103.821624581,"name":"VIVOCITY STATION","stopCode":"S1","stopId":"FERRY:S1","stopIndex":0,"stopSequence":1,"vertexType":"TRANSIT"},"interlineWithPreviousLeg":false,"intermediateStops":[],"legGeometry":{"length":13,"points":"iavFcttxRIqJJa@vFI^Ij@EjHF`ZHtDvEx@xDtAz@bBhAHF"},"mode":"TRAM","numIntermediateStops":1,"pathway":false,"realTime":false,"rentedBike":false,"route":"SS","routeId":"SS","routeLongName":"SENTOSA EXPRESS","routeShortName":"SS","routeType":0,"serviceDate":"20231122","startTime":1700650110000,"steps":[],"to":{"arrival":1700650227000,"lat":1.2554448734,"lon":103.820881995,"name":"RESORTS WORLD STATION","orig":"","stopCode":"S2","stopId":"FERRY:S2","stopIndex":1,"stopSequence":2,"vertexType":"TRANSIT"},"transitLeg":true,"tripId":"SS-1-4025"}],"startTime":1700648805000,"tooSloped":false,"transfers":1,"transitTime":1226,"waitingTime":111,"walkDistance":86.153,"walkLimitExceeded":false,"walkTime":85},{"duration":1428,"elevationGained":0,"elevationLost":0,"endTime":1700649837000,"fare":"info unavailable","legs":[{"agencyTimeZoneOffset":28800000,"arrivalDelay":0,"departureDelay":0,"distance":86.153,"duration":65,"endTime":1700648474000,"from":{"departure":1700648409000,"lat":1.2931,"lon":103.852,"name":"Origin","orig":"","vertexType":"NORMAL"},"interlineWithPreviousLeg":false,"intermediateStops":[],"legGeometry":{"length":4,"points":"yp{F}qzxRXm@[k@f@]"},"mode":"WALK","numIntermediateStops":1,"pathway":false,"realTime":false,"rentedBike":false,"route":"","startTime":1700648409000,"steps":[{"absoluteDirection":"SOUTHEAST","area":false,"bogusName":false,"distance":86.153,"elevation":[],"lat":1.2930931031,"lon":103.8519960097,"relativeDirection":"DEPART","stayOn":false,"streetName":"path"}],"to":{"arrival":1700648474000,"departure":1700648475000,"lat":1.2929049982,"lon":103.8525965871,"name":"path","vertexType":"NORMAL"},"transitLeg":false},{"agencyTimeZoneOffset":28800000,"arrivalDelay":0,"departureDelay":0,"distance":134.8224085395,"duration":10,"endTime":1700648485000,"from":{"arrival":1700648474000,"departure":1700648475000,"lat":1.2929048315,"lon":103.852596374,"name":"CITY HALL MRT STATION","vertexType":"NORMAL"},"interlineWithPreviousLeg":false,"intermediateStops":[],"legGeometry":{"length":2,"points":"so{FuuzxRnAbF"},"mode":"WALK","numIntermediateStops":1,"pathway":false,"realTime":false,"rentedBike":false,"route":"","startTime":1700648475000,"steps":[{"absoluteDirection":"WEST","area":false,"bogusName":false,"distance":134.8224085395,"elevation":[],"lat":1.2929048315,"lon":103.852596374,"relativeDirection":"HARD_RIGHT","stayOn":false,"streetName":"Transfer"}],"to":{"arrival":1700648485000,"departure":1700648485000,"lat":1.2925000652,"lon":103.851453155,"name":"CITY HALL STN EXIT B","stopCode":"04167","stopId":"FERRY:04167","stopIndex":32,"stopSequence":33,"vertexType":"TRANSIT"},"transitLeg":false},{"agencyId":"SBST","agencyName":"SBS Transit","agencyTimeZoneOffset":28800000,"agencyUrl":"http:\/\/www.sbstransit.com.sg\/","arrivalDelay":0,"departureDelay":0,"distance":4724.4644487906,"duration":1109,"endTime":1700649594000,"from":{"arrival":1700648485000,"departure":1700648485000,"lat":1.2925000652,"lon":103.851453155,"name":"CITY HALL STN EXIT B","stopCode":"04167","stopId":"FERRY:04167","stopIndex":32,"stopSequence":33,"vertexType":"TRANSIT"},"interlineWithPreviousLeg":false,"intermediateStops":[{"arrival":1700648528000,"departure":1700648558000,"lat":1.2904303936,"lon":103.850262165,"name":"OPP THE TREASURY","stopCode":"04249","stopId":"FERRY:04249","stopIndex":33,"stopSequence":34,"vertexType":"TRANSIT"},{"arrival":1700648616000,"departure":1700648646000,"lat":1.2871228336,"lon":103.848197808,"name":"BOAT QUAY","stopCode":"05029","stopId":"FERRY:05029","stopIndex":34,"stopSequence":35,"vertexType":"TRANSIT"},{"arrival":1700648704000,"departure":1700648734000,"lat":1.2845145585,"lon":103.846660493,"name":"OPP HONG LIM CPLX","stopCode":"05199","stopId":"FERRY:05199","stopIndex":35,"stopSequence":36,"vertexType":"TRANSIT"},{"arrival":1700648777000,"departure":1700648807000,"lat":1.282091396,"lon":103.845280614,"name":"OPP SRI MARIAMMAN TP","stopCode":"05189","stopId":"FERRY:05189","stopIndex":36,"stopSequence":37,"vertexType":"TRANSIT"},{"arrival":1700648864000,"departure":1700648894000,"lat":1.2797944784,"lon":103.842627076,"name":"OPP MAXWELL STN EXIT 3","stopCode":"05259","stopId":"FERRY:05259","stopIndex":37,"stopSequence":38,"vertexType":"TRANSIT"},{"arrival":1700648923000,"departure":1700648953000,"lat":1.2785411302,"lon":103.841510542,"name":"BEF THE PINNACLE@DUXTON","stopCode":"05239","stopId":"FERRY:05239","stopIndex":38,"stopSequence":39,"vertexType":"TRANSIT"},{"arrival":1700649011000,"departure":1700649041000,"lat":1.2774483795,"lon":103.838388946,"name":"BLK 3","stopCode":"10021","stopId":"FERRY:10021","stopIndex":39,"stopSequence":40,"vertexType":"TRANSIT"},{"arrival":1700649098000,"departure":1700649128000,"lat":1.2760583477,"lon":103.835190653,"name":"BEF KAMPONG BAHRU TER","stopCode":"10041","stopId":"FERRY:10041","stopIndex":40,"stopSequence":41,"vertexType":"TRANSIT"},{"arrival":1700649215000,"departure":1700649245000,"lat":1.2758816629,"lon":103.830194542,"name":"MELATI BLK 2","stopCode":"10399","stopId":"FERRY:10399","stopIndex":41,"stopSequence":42,"vertexType":"TRANSIT"},{"arrival":1700649288000,"departure":1700649318000,"lat":1.2735933225,"lon":103.828933717,"name":"OPP ST. TERESA'S CH","stopCode":"14221","stopId":"FERRY:14221","stopIndex":42,"stopSequence":43,"vertexType":"TRANSIT"},{"arrival":1700649376000,"departure":1700649406000,"lat":1.27101,"lon":103.826672222,"name":"KEPPEL DP BLK 519","stopCode":"14231","stopId":"FERRY:14231","stopIndex":43,"stopSequence":44,"vertexType":"TRANSIT"},{"arrival":1700649463000,"departure":1700649493000,"lat":1.2684889249,"lon":103.825717174,"name":"OPP MT FABER LODGE","stopCode":"14019","stopId":"FERRY:14019","stopIndex":44,"stopSequence":45,"vertexType":"TRANSIT"}],"legGeometry":{"length":133,"points":"im{FgnzxRTLv@`@fAh@rExBHDf@X??x@d@pBfAd@XhB|@pAv@ZJTHPHXLxAr@jAl@HBlB~@NFRJ`EpBtAt@LNjAf@B@@@@@lAj@bBz@pAp@bAd@^R|Av@TJ??|@b@RJ~@d@l@VPXt@n@`@\\\\f@`B`Dd@bALX??HR\\f@dA~@nAhAj@d@FFRX\\t@f@lALd@XzAVzAZpDNv@N|@XpDB`@JlBf@l@^b@bCvCDJDN??@@JbAAn@WdADd@a@`DAn@JtBV|C\\`EPtA?BFh@Rh@b@f@j@d@nB~Az@d@^HVAr@Md@Id@SLC??JA~@Ab@JVNTT|@fAhC~C`CnCNV??T^h@vAXz@RVf@r@PLhBHv@?d@Ad@G|@U|@[??h@UdB_ArBkAl@e@lApA\\d@f@v@b@bAZxATtGXrG"},"mode":"BUS","numIntermediateStops":13,"pathway":false,"realTime":false,"rentedBike":false,"route":"166 \/ 61","routeId":"166","routeLongName":"SBST BUS 166","routeShortName":"166","routeType":3,"serviceDate":"20231122","startTime":1700648485000,"steps":[],"to":{"arrival":1700649594000,"departure":1700649594000,"lat":1.2655242147,"lon":103.822113268,"name":"HARBOURFRONT STN\/VIVOCITY","stopCode":"14141","stopId":"FERRY:14141","stopIndex":45,"stopSequence":46,"vertexType":"TRANSIT"},"transitLeg":true,"tripId":"166-1-3004"},{"agencyTimeZoneOffset":28800000,"arrivalDelay":0,"departureDelay":0,"distance":75.6437011005,"duration":10,"endTime":1700649604000,"from":{"arrival":1700649594000,"departure":1700649594000,"lat":1.2655242147,"lon":103.822113268,"name":"HARBOURFRONT STN\/VIVOCITY","stopCode":"14141","stopId":"FERRY:14141","stopIndex":45,"stopSequence":46,"vertexType":"TRANSIT"},"interlineWithPreviousLeg":false,"intermediateStops":[],"legGeometry":{"length":2,"points":"odvFewtxR|A`B"},"mode":"WALK","numIntermediateStops":1,"pathway":false,"realTime":false,"rentedBike":false,"route":"","startTime":1700649594000,"steps":[{"absoluteDirection":"SOUTHWEST","area":false,"bogusName":false,"distance":75.6437011005,"elevation":[],"lat":1.2655242147,"lon":103.822113268,"relativeDirection":"DEPART","stayOn":false,"streetName":"Transfer"}],"to":{"arrival":1700649604000,"departure":1700649720000,"lat":1.2650508426,"lon":103.821624581,"name":"VIVOCITY STATION","stopCode":"S1","stopId":"FERRY:S1","stopIndex":0,"stopSequence":1,"vertexType":"TRANSIT"},"transitLeg":false},{"agencyId":"SMRT","agencyName":"SMRT Corporation","agencyTimeZoneOffset":28800000,"agencyUrl":"http:\/\/www.smrt.com.sg\/","arrivalDelay":0,"departureDelay":0,"distance":1071.3220191951,"duration":117,"endTime":1700649837000,"from":{"arrival":1700649604000,"departure":1700649720000,"lat":1.2650508426,"lon":103.821624581,"name":"VIVOCITY STATION","stopCode":"S1","stopId":"FERRY:S1","stopIndex":0,"stopSequence":1,"vertexType":"TRANSIT"},"interlineWithPreviousLeg":false,"intermediateStops":[],"legGeometry":{"length":13,"points":"iavFcttxRIqJJa@vFI^Ij@EjHF`ZHtDvEx@xDtAz@bBhAHF"},"mode":"TRAM","numIntermediateStops":1,"pathway":false,"realTime":false,"rentedBike":false,"route":"SS","routeId":"SS","routeLongName":"SENTOSA EXPRESS","routeShortName":"SS","routeType":0,"serviceDate":"20231122","startTime":1700649720000,"steps":[],"to":{"arrival":1700649837000,"lat":1.2554448734,"lon":103.820881995,"name":"RESORTS WORLD STATION","orig":"","stopCode":"S2","stopId":"FERRY:S2","stopIndex":1,"stopSequence":2,"vertexType":"TRANSIT"},"transitLeg":true,"tripId":"SS-1-4023"}],"startTime":1700648409000,"tooSloped":false,"transfers":1,"transitTime":1226,"waitingTime":117,"walkDistance":86.153,"walkLimitExceeded":false,"walkTime":85}],"to":{"lat":1.254989094,"lon":103.8202848416,"name":"Destination","orig":"","vertexType":"NORMAL"}},"requestParameters":{"arriveBy":"false","date":"11-22-2023","fromPlace":"1.2931,103.852","maxTransfers":"3","maxWalkDistance":"1000","mode":"TRANSIT,WALK","numItineraries":"3","otherThanPreferredRoutesPenalty":"0","preferredRoutes":"1__CC,1__DT,1__EW,1__NE,1__NS,1__PE,1__PW,1__SE,1__SS,1__SW,1__CG,1__BP","showIntermediateStops":"true","time":"6:19pm","toPlace":"1.25498909397858,103.82028484165","transferPenalty":"1","waitAtBeginningFactor":"0.5","walkReluctance":"2"}},{"debugOutput":{"pathCalculationTime":11,"pathTimes":[4,3,4],"precalculationTime":45,"renderingTime":0,"timedOut":false,"totalTime":56},"elevationMetadata":{"ellipsoidToGeoidDifference":7.3773084369,"geoidElevation":false},"plan":{"date":1700648340000,"from":{"lat":1.254989094,"lon":103.8202848416,"name":"Origin","orig":"","vertexType":"NORMAL"},"itineraries":[{"duration":2315,"elevationGained":0,"elevationLost":0,"endTime":1700650817000,"fare":"info unavailable","legs":[{"agencyId":"SMRT","agencyName":"SMRT Corporation","agencyTimeZoneOffset":28800000,"agencyUrl":"http:\/\/www.smrt.com.sg\/","arrivalDelay":0,"departureDelay":0,"distance":234.9387402389,"duration":20,"endTime":1700648522000,"from":{"departure":1700648502000,"lat":1.2554448734,"lon":103.820881995,"name":"RESORTS WORLD STATION","orig":"","stopCode":"S2","stopId":"FERRY:S2","stopIndex":1,"stopSequence":2,"vertexType":"TRANSIT"},"interlineWithPreviousLeg":false,"intermediateStops":[],"legGeometry":{"length":4,"points":"aetF_ptxR`Ar@zAvAlC~C"},"mode":"TRAM","numIntermediateStops":1,"pathway":false,"realTime":false,"rentedBike":false,"route":"SS","routeId":"SS","routeLongName":"SENTOSA EXPRESS","routeShortName":"SS","routeType":0,"serviceDate":"20231122","startTime":1700648502000,"steps":[],"to":{"arrival":1700648522000,"departure":1700648522000,"lat":1.2538851781,"lon":103.819456349,"name":"IMBIAH LRT STATION","stopCode":"S3","stopId":"FERRY:S3","stopIndex":2,"stopSequence":3,"vertexType":"TRANSIT"},"transitLeg":true,"tripId":"SS-1-4016"},{"agencyTimeZoneOffset":28800000,"arrivalDelay":0,"departureDelay":0,"distance":208.9643970641,"duration":10,"endTime":1700648532000,"from":{"arrival":1700648522000,"departure":1700648522000,"lat":1.2538851781,"lon":103.819456349,"name":"IMBIAH LRT STATION","stopCode":"S3","stopId":"FERRY:S3","stopIndex":2,"stopSequence":3,"vertexType":"TRANSIT"},"interlineWithPreviousLeg":false,"intermediateStops":[],"legGeometry":{"length":2,"points":"w{sFqftxRbC_J"},"mode":"WALK","numIntermediateStops":1,"pathway":false,"realTime":false,"rentedBike":false,"route":"","startTime":1700648522000,"steps":[{"absoluteDirection":"EAST","area":false,"bogusName":false,"distance":208.9643970641,"elevation":[],"lat":1.2538851781,"lon":103.819456349,"relativeDirection":"DEPART","stayOn":false,"streetName":"Transfer"}],"to":{"arrival":1700648532000,"departure":1700648635000,"lat":1.2532263021,"lon":103.821216741,"name":"OPP VILLAGE HOTEL","stopCode":"14529","stopId":"FERRY:14529","stopIndex":1,"stopSequence":2,"vertexType":"TRANSIT"},"transitLeg":false},{"agencyId":"SBST","agencyName":"SBS Transit","agencyTimeZoneOffset":28800000,"agencyUrl":"http:\/\/www.sbstransit.com.sg\/","arrivalDelay":0,"departureDelay":0,"distance":1706.328039396,"duration":360,"endTime":1700648995000,"from":{"arrival":1700648532000,"departure":1700648635000,"lat":1.2532263021,"lon":103.821216741,"name":"OPP VILLAGE HOTEL","stopCode":"14529","stopId":"FERRY:14529","stopIndex":1,"stopSequence":2,"vertexType":"TRANSIT"},"interlineWithPreviousLeg":false,"intermediateStops":[],"legGeometry":{"length":72,"points":"ewsFgqtxR??T]\\k@d@{@Ni@?YAYBg@@k@F}ADe@Le@Xc@Va@@?Xa@nAuACAACACACAEAE?EBG}AwA}AmBy@k@YG]AU@YFe@\\_@Tc@XyA`AyA`AgBjAgCtBc@Xc@Ho@DaUQsBDSFOHQ?uMKyB@w@Fi@@UAc@Ko@KYCS?y@La@GWSO]MUGyBMaAQm@e@s@uAcA[M]KWAyAz@y@\\"},"mode":"BUS","numIntermediateStops":1,"pathway":false,"realTime":false,"rentedBike":false,"route":"123","routeId":"123","routeLongName":"SBST BUS 123","routeShortName":"123","routeType":3,"serviceDate":"20231122","startTime":1700648635000,"steps":[],"to":{"arrival":1700648995000,"departure":1700649202000,"lat":1.267954444,"lon":103.825526111,"name":"BEF MT FABER LODGE","stopCode":"14011","stopId":"FERRY:14011","stopIndex":2,"stopSequence":3,"vertexType":"TRANSIT"},"transitLeg":true,"tripId":"123-2-3007"},{"agencyId":"SBST","agencyName":"SBS Transit","agencyTimeZoneOffset":28800000,"agencyUrl":"http:\/\/www.sbstransit.com.sg\/","arrivalDelay":0,"departureDelay":0,"distance":5566.6692441577,"duration":1344,"endTime":1700650546000,"from":{"arrival":1700648995000,"departure":1700649202000,"lat":1.267954444,"lon":103.825526111,"name":"BEF MT FABER LODGE","stopCode":"14011","stopId":"FERRY:14011","stopIndex":23,"stopSequence":24,"vertexType":"TRANSIT"},"interlineWithPreviousLeg":false,"intermediateStops":[{"arrival":1700649288000,"departure":1700649318000,"lat":1.2717813815,"lon":103.827142394,"name":"OPP KEPPEL DP BLK 519","stopCode":"14239","stopId":"FERRY:14239","stopIndex":24,"stopSequence":25,"vertexType":"TRANSIT"},{"arrival":1700649361000,"departure":1700649391000,"lat":1.2737067019,"lon":103.828578889,"name":"ST. TERESA'S CH","stopCode":"14229","stopId":"FERRY:14229","stopIndex":25,"stopSequence":26,"vertexType":"TRANSIT"},{"arrival":1700649463000,"departure":1700649493000,"lat":1.2762710534,"lon":103.831256394,"name":"OPP MELATI BLK 2","stopCode":"10391","stopId":"FERRY:10391","stopIndex":26,"stopSequence":27,"vertexType":"TRANSIT"},{"arrival":1700649551000,"departure":1700649581000,"lat":1.2762330242,"lon":103.834837868,"name":"OPP KAMPONG BAHRU TER","stopCode":"10049","stopId":"FERRY:10049","stopIndex":27,"stopSequence":28,"vertexType":"TRANSIT"},{"arrival":1700649638000,"departure":1700649668000,"lat":1.2783204663,"lon":103.837625748,"name":"AFT HOSP DR","stopCode":"10017","stopId":"FERRY:10017","stopIndex":28,"stopSequence":29,"vertexType":"TRANSIT"},{"arrival":1700649683000,"departure":1700649713000,"lat":1.2790081966,"lon":103.838603606,"name":"OUTRAM PK STN EXIT 6\/SGH","stopCode":"10018","stopId":"FERRY:10018","stopIndex":29,"stopSequence":30,"vertexType":"TRANSIT"},{"arrival":1700649770000,"departure":1700649800000,"lat":1.281545833,"lon":103.840877222,"name":"BEF PEARL'S HILL TERR","stopCode":"05012","stopId":"FERRY:05012","stopIndex":30,"stopSequence":31,"vertexType":"TRANSIT"},{"arrival":1700649887000,"departure":1700649917000,"lat":1.2857108987,"lon":103.844372034,"name":"AFT CHINATOWN STN EXIT D","stopCode":"05022","stopId":"FERRY:05022","stopIndex":31,"stopSequence":32,"vertexType":"TRANSIT"},{"arrival":1700650019000,"departure":1700650049000,"lat":1.2889896218,"lon":103.847089764,"name":"CLARKE QUAY STN EXIT E","stopCode":"04222","stopId":"FERRY:04222","stopIndex":32,"stopSequence":34,"vertexType":"TRANSIT"},{"arrival":1700650092000,"departure":1700650122000,"lat":1.2908447614,"lon":103.84857901,"name":"OLD HILL ST POLICE STN","stopCode":"04223","stopId":"FERRY:04223","stopIndex":33,"stopSequence":35,"vertexType":"TRANSIT"},{"arrival":1700650180000,"departure":1700650210000,"lat":1.2941164085,"lon":103.850206069,"name":"STAMFORD CT","stopCode":"04143","stopId":"FERRY:04143","stopIndex":34,"stopSequence":36,"vertexType":"TRANSIT"},{"arrival":1700650253000,"departure":1700650283000,"lat":1.2961854409,"lon":103.8495803,"name":"SMU","stopCode":"04121","stopId":"FERRY:04121","stopIndex":35,"stopSequence":37,"vertexType":"TRANSIT"},{"arrival":1700650340000,"departure":1700650370000,"lat":1.2992144445,"lon":103.849103292,"name":"SCH OF THE ARTS","stopCode":"08079","stopId":"FERRY:08079","stopIndex":36,"stopSequence":38,"vertexType":"TRANSIT"},{"arrival":1700650399000,"departure":1700650429000,"lat":1.3009969906,"lon":103.849810187,"name":"PEACE CTR","stopCode":"07011","stopId":"FERRY:07011","stopIndex":37,"stopSequence":39,"vertexType":"TRANSIT"},{"arrival":1700650472000,"departure":1700650502000,"lat":1.3037235457,"lon":103.850036757,"name":"SELEGIE CTR","stopCode":"07021","stopId":"FERRY:07021","stopIndex":38,"stopSequence":40,"vertexType":"TRANSIT"}],"legGeometry":{"length":159,"points":"}svFamuxRA?????aBr@u@Vu@Nq@Hy@@cBK{@Ag@FCi@a@eBw@eBw@sAu@y@U[wAkBYUs@_AuAyA]O[I[@_AVA???oAXu@?k@Oq@y@oB_Bk@e@c@g@Si@Gi@QyASeCI{@W}CKuB@o@Mc@c@q@lAqBVeA@o@AOIs@GQEKcCwC_@c@g@m@m@y@k@e@cAcBc@s@????kAsB{@qA??OWIKOWYa@a@[_@]]Sc@[uAsAa@_@{@[iCmBcAu@kAaAwAgAmCwBsDyCwAkAs@m@WWmByA??aAu@wBaB}@s@aBoAa@_@cA{@kA_A}@s@o@e@SQ??yBaBkA{@[UKk@KGaAo@u@]??o@YKEiAa@WK_EwAOEwAg@iBw@aBs@??yAq@}@dB[|@_CkAS?O@KDUR[b@_@b@A@??UR[R]P{@f@{@l@oB`Cu@EUEsAgAkBaB??m@i@q@WmGiAs@M]Gq@A_AGsECI?sAGk@GEA_@Ig@KWO[QkAq@oBhB{BzCg@n@??"},"mode":"BUS","numIntermediateStops":16,"pathway":false,"realTime":false,"rentedBike":false,"route":"166","routeId":"166","routeLongName":"SBST BUS 166","routeShortName":"166","routeType":3,"serviceDate":"20231122","startTime":1700649202000,"steps":[],"to":{"arrival":1700650546000,"departure":1700650546000,"lat":1.3060641152,"lon":103.849087515,"name":"LITTLE INDIA STN EXIT A","stopCode":"40011","stopId":"FERRY:40011","stopIndex":39,"stopSequence":41,"vertexType":"TRANSIT"},"transitLeg":true,"tripId":"166-2-3005"},{"agencyTimeZoneOffset":28800000,"arrivalDelay":0,"departureDelay":0,"distance":97.6050536873,"duration":10,"endTime":1700650556000,"from":{"arrival":1700650546000,"departure":1700650546000,"lat":1.3060641152,"lon":103.849087515,"name":"LITTLE INDIA STN EXIT A","stopCode":"40011","stopId":"FERRY:40011","stopIndex":39,"stopSequence":41,"vertexType":"TRANSIT"},"interlineWithPreviousLeg":false,"intermediateStops":[],"legGeometry":{"length":2,"points":"{a~Fw_zxRgCoB"},"mode":"WALK","numIntermediateStops":1,"pathway":false,"realTime":false,"rentedBike":false,"route":"","startTime":1700650546000,"steps":[{"absoluteDirection":"NORTHEAST","area":false,"bogusName":false,"distance":97.6050536873,"elevation":[],"lat":1.3060641152,"lon":103.849087515,"relativeDirection":"DEPART","stayOn":false,"streetName":"Transfer"}],"to":{"arrival":1700650556000,"departure":1700650557000,"lat":1.3067411301,"lon":103.849646366,"name":"LITTLE INDIA MRT STATION","vertexType":"NORMAL"},"transitLeg":false},{"agencyTimeZoneOffset":28800000,"arrivalDelay":0,"departureDelay":0,"distance":306.454,"duration":260,"endTime":1700650817000,"from":{"arrival":1700650556000,"departure":1700650557000,"lat":1.30674113,"lon":103.849646366,"name":"path","vertexType":"NORMAL"},"interlineWithPreviousLeg":false,"intermediateStops":[],"legGeometry":{"length":13,"points":"cf~FgczxRwCeBR_@PJGJs@e@?AUSC?CCcBiA]WSM"},"mode":"WALK","numIntermediateStops":1,"pathway":false,"realTime":false,"rentedBike":false,"route":"","startTime":1700650557000,"steps":[{"absoluteDirection":"NORTHEAST","area":false,"bogusName":true,"distance":306.454,"elevation":[],"lat":1.30674113,"lon":103.849646366,"relativeDirection":"CONTINUE","stayOn":false,"streetName":"path"}],"to":{"arrival":1700650817000,"lat":1.308451045,"lon":103.8511550217,"name":"Destination","orig":"","vertexType":"NORMAL"},"transitLeg":false}],"startTime":1700648502000,"tooSloped":false,"transfers":2,"transitTime":1724,"waitingTime":311,"walkDistance":306.6679097675,"walkLimitExceeded":false,"walkTime":280}],"to":{"lat":1.308451045,"lon":103.8511550217,"name":"Destination","orig":"","vertexType":"NORMAL"}},"requestParameters":{"arriveBy":"false","date":"11-22-2023","fromPlace":"1.25498909397858,103.82028484165","maxTransfers":"3","maxWalkDistance":"1000","mode":"TRANSIT,WALK","numItineraries":"3","otherThanPreferredRoutesPenalty":"0","preferredRoutes":"1__CC,1__DT,1__EW,1__NE,1__NS,1__PE,1__PW,1__SE,1__SS,1__SW,1__CG,1__BP","showIntermediateStops":"true","time":"6:19pm","toPlace":"1.30845104495699,103.851155021653","transferPenalty":"1","waitAtBeginningFactor":"0.5","walkReluctance":"2"}},{"debugOutput":{"pathCalculationTime":19,"pathTimes":[7,7,5],"precalculationTime":54,"renderingTime":1,"timedOut":false,"totalTime":74},"elevationMetadata":{"ellipsoidToGeoidDifference":7.3773084369,"geoidElevation":false},"plan":{"date":1700648340000,"from":{"lat":1.308451045,"lon":103.8511550217,"name":"Origin","orig":"","vertexType":"NORMAL"},"itineraries":[{"duration":504,"elevationGained":0,"elevationLost":0,"endTime":1700649165000,"fare":"0.99","legs":[{"agencyTimeZoneOffset":28800000,"arrivalDelay":0,"departureDelay":0,"distance":306.454,"duration":259,"endTime":1700648920000,"from":{"departure":1700648661000,"lat":1.308451045,"lon":103.8511550217,"name":"Origin","orig":"","vertexType":"NORMAL"},"interlineWithPreviousLeg":false,"intermediateStops":[],"legGeometry":{"length":13,"points":"eq~FelzxRRL\\VbBhABBB?TR?@r@d@FKQKS^vCdB"},"mode":"WALK","numIntermediateStops":1,"pathway":false,"realTime":false,"rentedBike":false,"route":"","startTime":1700648661000,"steps":[{"absoluteDirection":"SOUTHWEST","area":false,"bogusName":false,"distance":306.454,"elevation":[],"lat":1.3085123556,"lon":103.8510723649,"relativeDirection":"DEPART","stayOn":false,"streetName":"path"}],"to":{"arrival":1700648920000,"departure":1700648921000,"lat":1.3067411301,"lon":103.849646366,"name":"LITTLE INDIA MRT STATION","stopCode":"NE7","stopId":"FERRY:NE7","stopIndex":10,"stopSequence":11,"vertexType":"TRANSIT"},"transitLeg":false},{"agencyId":"SBST","agencyName":"SBS Transit","agencyTimeZoneOffset":28800000,"agencyUrl":"http:\/\/www.sbstransit.com.sg\/","arrivalDelay":0,"departureDelay":0,"distance":923.1791690431,"duration":75,"endTime":1700648996000,"from":{"arrival":1700648920000,"departure":1700648921000,"lat":1.3067411301,"lon":103.849646366,"name":"LITTLE INDIA MRT STATION","stopCode":"NE7","stopId":"FERRY:NE7","stopIndex":10,"stopSequence":11,"vertexType":"TRANSIT"},"interlineWithPreviousLeg":false,"intermediateStops":[],"legGeometry":{"length":36,"points":"if~F}bzxRhChBlBtABBB@@@BBB@BBB@@@??BBB@XPVRXNXPZPXNZNRJB@B@B@B@B@B@B@BBB@??B@??fXvLrAl@"},"mode":"SUBWAY","numIntermediateStops":1,"pathway":false,"realTime":false,"rentedBike":false,"route":"NE","routeId":"NE","routeLongName":"NORTH EAST LINE","routeShortName":"NE","routeType":1,"serviceDate":"20231122","startTime":1700648921000,"steps":[],"to":{"arrival":1700648996000,"departure":1700648996000,"lat":1.2996206158,"lon":103.845375944,"name":"DHOBY GHAUT MRT STATION","stopCode":"NE6","stopId":"FERRY:NE6","stopIndex":11,"stopSequence":12,"vertexType":"TRANSIT"},"transitLeg":true,"tripId":"NE-2-4013"},{"agencyTimeZoneOffset":28800000,"arrivalDelay":0,"departureDelay":0,"distance":132.783350889,"duration":20,"endTime":1700649016000,"from":{"arrival":1700648996000,"departure":1700648996000,"lat":1.2996206158,"lon":103.845375944,"name":"DHOBY GHAUT MRT STATION","stopCode":"NE6","stopId":"FERRY:NE6","stopIndex":11,"stopSequence":12,"vertexType":"TRANSIT"},"interlineWithPreviousLeg":false,"intermediateStops":[],"legGeometry":{"length":2,"points":"sy|FqhyxRzDuC"},"mode":"WALK","numIntermediateStops":1,"pathway":false,"realTime":false,"rentedBike":false,"route":"","startTime":1700648996000,"steps":[{"absoluteDirection":"SOUTHEAST","area":false,"bogusName":false,"distance":132.783350889,"elevation":[],"lat":1.2996206158,"lon":103.845375944,"relativeDirection":"DEPART","stayOn":false,"streetName":"Transfer"}],"to":{"arrival":1700649016000,"departure":1700649019000,"lat":1.2986887229,"lon":103.846122838,"name":"DHOBY GHAUT MRT STATION","stopCode":"NS24","stopId":"FERRY:NS24","stopIndex":22,"stopSequence":24,"vertexType":"TRANSIT"},"transitLeg":false},{"agencyId":"SMRT","agencyName":"SMRT Corporation","agencyTimeZoneOffset":28800000,"agencyUrl":"http:\/\/www.smrt.com.sg\/","arrivalDelay":0,"departureDelay":0,"distance":965.1493796816,"duration":80,"endTime":1700649099000,"from":{"arrival":1700649016000,"departure":1700649019000,"lat":1.2986887229,"lon":103.846122838,"name":"DHOBY GHAUT MRT STATION","stopCode":"NS24","stopId":"FERRY:NS24","stopIndex":22,"stopSequence":24,"vertexType":"TRANSIT"},"interlineWithPreviousLeg":false,"intermediateStops":[],"legGeometry":{"length":14,"points":"kt|FmmyxRfBuHb@wAf@iAf@_Av@mA|@eAfAcAt@k@nBkAnEiCzDyBFElEgC"},"mode":"SUBWAY","numIntermediateStops":1,"pathway":false,"realTime":false,"rentedBike":false,"route":"NS","routeId":"NS","routeLongName":"NORTH SOUTH LINE","routeShortName":"NS","routeType":1,"serviceDate":"20231122","startTime":1700649019000,"steps":[],"to":{"arrival":1700649099000,"departure":1700649100000,"lat":1.2929048315,"lon":103.852596374,"name":"CITY HALL MRT STATION","stopCode":"NS25","stopId":"FERRY:NS25","stopIndex":23,"stopSequence":25,"vertexType":"TRANSIT"},"transitLeg":true,"tripId":"NS-2-3153"},{"agencyTimeZoneOffset":28800000,"arrivalDelay":0,"departureDelay":0,"distance":86.153,"duration":65,"endTime":1700649165000,"from":{"arrival":1700649099000,"departure":1700649100000,"lat":1.2929048315,"lon":103.852596374,"name":"CITY HALL MRT STATION","stopCode":"NS25","stopId":"FERRY:NS25","stopIndex":23,"stopSequence":25,"vertexType":"TRANSIT"},"interlineWithPreviousLeg":false,"intermediateStops":[],"legGeometry":{"length":4,"points":"so{FuuzxRg@\\Zj@Yl@"},"mode":"WALK","numIntermediateStops":1,"pathway":false,"realTime":false,"rentedBike":false,"route":"","startTime":1700649100000,"steps":[{"absoluteDirection":"NORTHWEST","area":false,"bogusName":false,"distance":86.153,"elevation":[],"lat":1.2929049982,"lon":103.8525965871,"relativeDirection":"DEPART","stayOn":false,"streetName":"path"}],"to":{"arrival":1700649165000,"lat":1.2931,"lon":103.852,"name":"Destination","orig":"","vertexType":"NORMAL"},"transitLeg":false}],"startTime":1700648661000,"tooSloped":false,"transfers":1,"transitTime":155,"waitingTime":5,"walkDistance":392.819781948,"walkLimitExceeded":false,"walkTime":344},{"duration":746,"elevationGained":0,"elevationLost":0,"endTime":1700649226000,"fare":"0.99","legs":[{"agencyTimeZoneOffset":28800000,"arrivalDelay":0,"departureDelay":0,"distance":306.454,"duration":259,"endTime":1700648739000,"from":{"departure":1700648480000,"lat":1.308451045,"lon":103.8511550217,"name":"Origin","orig":"","vertexType":"NORMAL"},"interlineWithPreviousLeg":false,"intermediateStops":[],"legGeometry":{"length":13,"points":"eq~FelzxRRL\\VbBhABBB?TR?@r@d@FKQKS^vCdB"},"mode":"WALK","numIntermediateStops":1,"pathway":false,"realTime":false,"rentedBike":false,"route":"","startTime":1700648480000,"steps":[{"absoluteDirection":"SOUTHWEST","area":false,"bogusName":false,"distance":306.454,"elevation":[],"lat":1.3085123556,"lon":103.8510723649,"relativeDirection":"DEPART","stayOn":false,"streetName":"path"}],"to":{"arrival":1700648739000,"departure":1700648740000,"lat":1.30674113,"lon":103.849646366,"name":"path","vertexType":"NORMAL"},"transitLeg":false},{"agencyTimeZoneOffset":28800000,"arrivalDelay":0,"departureDelay":0,"distance":118.3911364647,"duration":20,"endTime":1700648760000,"from":{"arrival":1700648739000,"departure":1700648740000,"lat":1.3067411301,"lon":103.849646366,"name":"LITTLE INDIA MRT STATION","vertexType":"NORMAL"},"interlineWithPreviousLeg":false,"intermediateStops":[],"legGeometry":{"length":2,"points":"cf~FgczxRcAhE"},"mode":"WALK","numIntermediateStops":1,"pathway":false,"realTime":false,"rentedBike":false,"route":"","startTime":1700648740000,"steps":[{"absoluteDirection":"WEST","area":false,"bogusName":false,"distance":118.3911364647,"elevation":[],"lat":1.3067411301,"lon":103.849646366,"relativeDirection":"RIGHT","stayOn":false,"streetName":"Transfer"}],"to":{"arrival":1700648760000,"departure":1700648760000,"lat":1.3070847334,"lon":103.848638356,"name":"LITTLE INDIA MRT STATION","stopCode":"DT12","stopId":"FERRY:DT12","stopIndex":10,"stopSequence":11,"vertexType":"TRANSIT"},"transitLeg":false},{"agencyId":"SBST","agencyName":"SBS Transit","agencyTimeZoneOffset":28800000,"agencyUrl":"http:\/\/www.sbstransit.com.sg\/","arrivalDelay":0,"departureDelay":0,"distance":1257.8878563275,"duration":132,"endTime":1700648892000,"from":{"arrival":1700648760000,"departure":1700648760000,"lat":1.3070847334,"lon":103.848638356,"name":"LITTLE INDIA MRT STATION","stopCode":"DT12","stopId":"FERRY:DT12","stopIndex":10,"stopSequence":11,"vertexType":"TRANSIT"},"interlineWithPreviousLeg":false,"intermediateStops":[{"arrival":1700648805000,"departure":1700648835000,"lat":1.3039345092,"lon":103.852474327,"name":"ROCHOR MRT STATION","stopCode":"DT13","stopId":"FERRY:DT13","stopIndex":11,"stopSequence":12,"vertexType":"TRANSIT"}],"legGeometry":{"length":13,"points":"kh~Fa}yxRrEkFtDeE`BaCxBeEBInAkDtA}A|BmAvBuAvCmCjIyHLK"},"mode":"SUBWAY","numIntermediateStops":2,"pathway":false,"realTime":false,"rentedBike":false,"route":"DT","routeId":"DT","routeLongName":"DOWNTOWN LINE","routeShortName":"DT","routeType":1,"serviceDate":"20231122","startTime":1700648760000,"steps":[],"to":{"arrival":1700648892000,"departure":1700648892000,"lat":1.299376352,"lon":103.856895776,"name":"BUGIS MRT STATION","stopCode":"DT14","stopId":"FERRY:DT14","stopIndex":12,"stopSequence":13,"vertexType":"TRANSIT"},"transitLeg":true,"tripId":"DT-2-6009"},{"agencyTimeZoneOffset":28800000,"arrivalDelay":0,"departureDelay":0,"distance":178.144738556,"duration":20,"endTime":1700648912000,"from":{"arrival":1700648892000,"departure":1700648892000,"lat":1.299376352,"lon":103.856895776,"name":"BUGIS MRT STATION","stopCode":"DT14","stopId":"FERRY:DT14","stopIndex":12,"stopSequence":13,"vertexType":"TRANSIT"},"interlineWithPreviousLeg":false,"intermediateStops":[],"legGeometry":{"length":2,"points":"ax|Fqp{xRmDjG"},"mode":"WALK","numIntermediateStops":1,"pathway":false,"realTime":false,"rentedBike":false,"route":"","startTime":1700648892000,"steps":[{"absoluteDirection":"NORTHWEST","area":false,"bogusName":false,"distance":178.144738556,"elevation":[],"lat":1.299376352,"lon":103.856895776,"relativeDirection":"DEPART","stayOn":false,"streetName":"Transfer"}],"to":{"arrival":1700648912000,"departure":1700649081000,"lat":1.3002476806,"lon":103.855551003,"name":"BUGIS MRT STATION","stopCode":"EW12","stopId":"FERRY:EW12","stopIndex":11,"stopSequence":12,"vertexType":"TRANSIT"},"transitLeg":false},{"agencyId":"SMRT","agencyName":"SMRT Corporation","agencyTimeZoneOffset":28800000,"agencyUrl":"http:\/\/www.smrt.com.sg\/","arrivalDelay":0,"departureDelay":0,"distance":880.0781184463,"duration":79,"endTime":1700649160000,"from":{"arrival":1700648912000,"departure":1700649081000,"lat":1.3002476806,"lon":103.855551003,"name":"BUGIS MRT STATION","stopCode":"EW12","stopId":"FERRY:EW12","stopIndex":11,"stopSequence":12,"vertexType":"TRANSIT"},"interlineWithPreviousLeg":false,"intermediateStops":[],"legGeometry":{"length":47,"points":"i}|Fmh{xR@@|BhB~BlBxAjAnAfA|ClCjAbA`@^\\X\\T\\Tj@V\\Lb@J`@HRBRBL@P@R@N?V?N?PAPAJARAPCNCRELETGJCNGNGFCVMLIVM\\SDCRMZQHEBADC"},"mode":"SUBWAY","numIntermediateStops":1,"pathway":false,"realTime":false,"rentedBike":false,"route":"EW","routeId":"EW","routeLongName":"EAST WEST LINE","routeShortName":"EW","routeType":1,"serviceDate":"20231122","startTime":1700649081000,"steps":[],"to":{"arrival":1700649160000,"departure":1700649161000,"lat":1.2929048315,"lon":103.852596374,"name":"CITY HALL MRT STATION","stopCode":"EW13","stopId":"FERRY:EW13","stopIndex":12,"stopSequence":13,"vertexType":"TRANSIT"},"transitLeg":true,"tripId":"EW-2-4011"},{"agencyTimeZoneOffset":28800000,"arrivalDelay":0,"departureDelay":0,"distance":86.153,"duration":65,"endTime":1700649226000,"from":{"arrival":1700649160000,"departure":1700649161000,"lat":1.2929048315,"lon":103.852596374,"name":"CITY HALL MRT STATION","stopCode":"EW13","stopId":"FERRY:EW13","stopIndex":12,"stopSequence":13,"vertexType":"TRANSIT"},"interlineWithPreviousLeg":false,"intermediateStops":[],"legGeometry":{"length":4,"points":"so{FuuzxRg@\\Zj@Yl@"},"mode":"WALK","numIntermediateStops":1,"pathway":false,"realTime":false,"rentedBike":false,"route":"","startTime":1700649161000,"steps":[{"absoluteDirection":"NORTHWEST","area":false,"bogusName":false,"distance":86.153,"elevation":[],"lat":1.2929049982,"lon":103.8525965871,"relativeDirection":"DEPART","stayOn":false,"streetName":"path"}],"to":{"arrival":1700649226000,"lat":1.2931,"lon":103.852,"name":"Destination","orig":"","vertexType":"NORMAL"},"transitLeg":false}],"startTime":1700648480000,"tooSloped":false,"transfers":1,"transitTime":211,"waitingTime":171,"walkDistance":392.819781948,"walkLimitExceeded":false,"walkTime":364},{"duration":753,"elevationGained":0,"elevationLost":0,"endTime":1700649191000,"fare":"0.99","legs":[{"agencyTimeZoneOffset":28800000,"arrivalDelay":0,"departureDelay":0,"distance":306.454,"duration":259,"endTime":1700648697000,"from":{"departure":1700648438000,"lat":1.308451045,"lon":103.8511550217,"name":"Origin","orig":"","vertexType":"NORMAL"},"interlineWithPreviousLeg":false,"intermediateStops":[],"legGeometry":{"length":13,"points":"eq~FelzxRRL\\VbBhABBB?TR?@r@d@FKQKS^vCdB"},"mode":"WALK","numIntermediateStops":1,"pathway":false,"realTime":false,"rentedBike":false,"route":"","startTime":1700648438000,"steps":[{"absoluteDirection":"SOUTHWEST","area":false,"bogusName":false,"distance":306.454,"elevation":[],"lat":1.3085123556,"lon":103.8510723649,"relativeDirection":"DEPART","stayOn":false,"streetName":"path"}],"to":{"arrival":1700648697000,"departure":1700648698000,"lat":1.30674113,"lon":103.849646366,"name":"path","vertexType":"NORMAL"},"transitLeg":false},{"agencyTimeZoneOffset":28800000,"arrivalDelay":0,"departureDelay":0,"distance":50.3290025897,"duration":10,"endTime":1700648708000,"from":{"arrival":1700648697000,"departure":1700648698000,"lat":1.3067411301,"lon":103.849646366,"name":"LITTLE INDIA MRT STATION","vertexType":"NORMAL"},"interlineWithPreviousLeg":false,"intermediateStops":[],"legGeometry":{"length":2,"points":"cf~FgczxRRvA"},"mode":"WALK","numIntermediateStops":1,"pathway":false,"realTime":false,"rentedBike":false,"route":"","startTime":1700648698000,"steps":[{"absoluteDirection":"WEST","area":false,"bogusName":false,"distance":50.3290025897,"elevation":[],"lat":1.3067411301,"lon":103.849646366,"relativeDirection":"RIGHT","stayOn":false,"streetName":"Transfer"}],"to":{"arrival":1700648708000,"departure":1700648708000,"lat":1.3066440446,"lon":103.849204167,"name":"LITTLE INDIA STN","stopCode":"40019","stopId":"FERRY:40019","stopIndex":28,"stopSequence":29,"vertexType":"TRANSIT"},"transitLeg":false},{"agencyId":"SBST","agencyName":"SBS Transit","agencyTimeZoneOffset":28800000,"agencyUrl":"http:\/\/www.sbstransit.com.sg\/","arrivalDelay":0,"departureDelay":0,"distance":1848.8844674083,"duration":407,"endTime":1700649115000,"from":{"arrival":1700648708000,"departure":1700648708000,"lat":1.3066440446,"lon":103.849204167,"name":"LITTLE INDIA STN","stopCode":"40019","stopId":"FERRY:40019","stopIndex":28,"stopSequence":29,"vertexType":"TRANSIT"},"interlineWithPreviousLeg":false,"intermediateStops":[{"arrival":1700648766000,"departure":1700648796000,"lat":1.3046130074,"lon":103.852000972,"name":"OPP ROCHOR STN","stopCode":"07539","stopId":"FERRY:07539","stopIndex":29,"stopSequence":30,"vertexType":"TRANSIT"},{"arrival":1700648882000,"departure":1700648912000,"lat":1.3009582837,"lon":103.85211175,"name":"OPP NAFA CAMPUS 3","stopCode":"07518","stopId":"FERRY:07518","stopIndex":30,"stopSequence":31,"vertexType":"TRANSIT"},{"arrival":1700648970000,"departure":1700649000000,"lat":1.2981911422,"lon":103.849817939,"name":"OPP BENCOOLEN STN EXIT B","stopCode":"04019","stopId":"FERRY:04019","stopIndex":31,"stopSequence":32,"vertexType":"TRANSIT"}],"legGeometry":{"length":39,"points":"yd~F}_zxR??h@q@vC{DzAuB`@a@n@cBXu@HW??@?Vw@d@iALs@Po@Pa@Xm@^e@p@cA`Aj@^^tB`BtB~AtCxBLJ`BnA`CjBnFhEdAx@v@n@~B_DzBwCnCgDfDkF~FtDt@`@pBdA|Av@??"},"mode":"BUS","numIntermediateStops":4,"pathway":false,"realTime":false,"rentedBike":false,"route":"166","routeId":"166","routeLongName":"SBST BUS 166","routeShortName":"166","routeType":3,"serviceDate":"20231122","startTime":1700648708000,"steps":[],"to":{"arrival":1700649115000,"departure":1700649115000,"lat":1.2925000652,"lon":103.851453155,"name":"CITY HALL STN EXIT B","stopCode":"04167","stopId":"FERRY:04167","stopIndex":32,"stopSequence":33,"vertexType":"TRANSIT"},"transitLeg":true,"tripId":"166-1-3005"},{"agencyTimeZoneOffset":28800000,"arrivalDelay":0,"departureDelay":0,"distance":134.8224085395,"duration":10,"endTime":1700649125000,"from":{"arrival":1700649115000,"departure":1700649115000,"lat":1.2925000652,"lon":103.851453155,"name":"CITY HALL STN EXIT B","stopCode":"04167","stopId":"FERRY:04167","stopIndex":32,"stopSequence":33,"vertexType":"TRANSIT"},"interlineWithPreviousLeg":false,"intermediateStops":[],"legGeometry":{"length":2,"points":"cm{FqnzxRoAcF"},"mode":"WALK","numIntermediateStops":1,"pathway":false,"realTime":false,"rentedBike":false,"route":"","startTime":1700649115000,"steps":[{"absoluteDirection":"EAST","area":false,"bogusName":false,"distance":134.8224085395,"elevation":[],"lat":1.2925000652,"lon":103.851453155,"relativeDirection":"DEPART","stayOn":false,"streetName":"Transfer"}],"to":{"arrival":1700649125000,"departure":1700649126000,"lat":1.2929048315,"lon":103.852596374,"name":"CITY HALL MRT STATION","vertexType":"NORMAL"},"transitLeg":false},{"agencyTimeZoneOffset":28800000,"arrivalDelay":0,"departureDelay":0,"distance":86.153,"duration":65,"endTime":1700649191000,"from":{"arrival":1700649125000,"departure":1700649126000,"lat":1.2929049982,"lon":103.8525965871,"name":"path","vertexType":"NORMAL"},"interlineWithPreviousLeg":false,"intermediateStops":[],"legGeometry":{"length":4,"points":"so{FuuzxRg@\\Zj@Yl@"},"mode":"WALK","numIntermediateStops":1,"pathway":false,"realTime":false,"rentedBike":false,"route":"","startTime":1700649126000,"steps":[{"absoluteDirection":"NORTHWEST","area":false,"bogusName":false,"distance":86.153,"elevation":[],"lat":1.2929049982,"lon":103.8525965871,"relativeDirection":"LEFT","stayOn":false,"streetName":"path"}],"to":{"arrival":1700649191000,"lat":1.2931,"lon":103.852,"name":"Destination","orig":"","vertexType":"NORMAL"},"transitLeg":false}],"startTime":1700648438000,"tooSloped":false,"transfers":0,"transitTime":407,"waitingTime":2,"walkDistance":392.819781948,"walkLimitExceeded":false,"walkTime":344}],"to":{"lat":1.2931,"lon":103.852,"name":"Destination","orig":"","vertexType":"NORMAL"}},"requestParameters":{"arriveBy":"false","date":"11-22-2023","fromPlace":"1.30845104495699,103.851155021653","maxTransfers":"3","maxWalkDistance":"600","mode":"TRANSIT,WALK","numItineraries":"3","otherThanPreferredRoutesPenalty":"0","preferredRoutes":"1__CC,1__DT,1__EW,1__NE,1__NS,1__PE,1__PW,1__SE,1__SS,1__SW,1__CG,1__BP","showIntermediateStops":"true","time":"6:19pm","toPlace":"1.2931,103.852","transferPenalty":"7200","waitAtBeginningFactor":"0.5","walkReluctance":"2"}}],"user_exist_in_db":true},{"index":1,"Itinerary":[[1.2931,103.852],"Cineleisure","Knockhouse Cafe'","1.2931,103.8520"],"POICategories":[["NA","NA","NA"],["nonfood","Entertainment","Cinema"],["food","NA","NA"],["NA","NA","NA"]],"VehicleMode":"Public Transport","Coords":[[1.2931,103.852],[1.3015210187,103.836429655],[1.3514635239,103.8353445998],[1.2931,103.852]],"StartTimePOI":[["Fri, 22 Sep 2023 10:00:00 GMT"],["Fri, 22 Sep 2023 11:22:31 GMT"],["Fri, 22 Sep 2023 13:56:57 GMT"]],"ReachTimePOI":[["Fri, 22 Sep 2023 10:22:31 GMT"],["Fri, 22 Sep 2023 12:56:57 GMT"],["Fri, 22 Sep 2023 15:25:29 GMT"]],"LeaveTimePOI":[["Fri, 22 Sep 2023 11:22:31 GMT"],["Fri, 22 Sep 2023 13:56:57 GMT"],["Fri, 22 Sep 2023 16:25:29 GMT"]],"TotalTime":"6h 25min","Total distance(km)":4.8572869849,"Routes":[{"debugOutput":{"pathCalculationTime":23,"pathTimes":[8,8,7],"precalculationTime":43,"renderingTime":1,"timedOut":false,"totalTime":67},"elevationMetadata":{"ellipsoidToGeoidDifference":7.3773084369,"geoidElevation":false},"plan":{"date":1700648340000,"from":{"lat":1.2931,"lon":103.852,"name":"Origin","orig":"","vertexType":"NORMAL"},"itineraries":[{"duration":521,"elevationGained":0,"elevationLost":0,"endTime":1700648966000,"fare":"0.99","legs":[{"agencyTimeZoneOffset":28800000,"arrivalDelay":0,"departureDelay":0,"distance":86.153,"duration":65,"endTime":1700648510000,"from":{"departure":1700648445000,"lat":1.2931,"lon":103.852,"name":"Origin","orig":"","vertexType":"NORMAL"},"interlineWithPreviousLeg":false,"intermediateStops":[],"legGeometry":{"length":4,"points":"yp{F}qzxRXm@[k@f@]"},"mode":"WALK","numIntermediateStops":1,"pathway":false,"realTime":false,"rentedBike":false,"route":"","startTime":1700648445000,"steps":[{"absoluteDirection":"SOUTHEAST","area":false,"bogusName":false,"distance":86.153,"elevation":[],"lat":1.2930931031,"lon":103.8519960097,"relativeDirection":"DEPART","stayOn":false,"streetName":"path"}],"to":{"arrival":1700648510000,"departure":1700648511000,"lat":1.2929048315,"lon":103.852596374,"name":"CITY HALL MRT STATION","stopCode":"NS25","stopId":"FERRY:NS25","stopIndex":3,"stopSequence":4,"vertexType":"TRANSIT"},"transitLeg":false},{"agencyId":"SMRT","agencyName":"SMRT Corporation","agencyTimeZoneOffset":28800000,"agencyUrl":"http:\/\/www.smrt.com.sg\/","arrivalDelay":0,"departureDelay":0,"distance":1750.8541633212,"duration":173,"endTime":1700648684000,"from":{"arrival":1700648510000,"departure":1700648511000,"lat":1.2929048315,"lon":103.852596374,"name":"CITY HALL MRT STATION","stopCode":"NS25","stopId":"FERRY:NS25","stopIndex":3,"stopSequence":4,"vertexType":"TRANSIT"},"interlineWithPreviousLeg":false,"intermediateStops":[{"arrival":1700648590000,"departure":1700648620000,"lat":1.2986887229,"lon":103.846122838,"name":"DHOBY GHAUT MRT STATION","stopCode":"NS24","stopId":"FERRY:NS24","stopIndex":4,"stopSequence":5,"vertexType":"TRANSIT"}],"legGeometry":{"length":22,"points":"io{FguzxR??eE`COJo@`@sBvAiIrFaBrAuAbBaAvAgAzBe@zA{A|G?@iA|EIh@SrAIh@Gn@{@pIm@xFmA~I"},"mode":"SUBWAY","numIntermediateStops":2,"pathway":false,"realTime":false,"rentedBike":false,"route":"NS","routeId":"NS","routeLongName":"NORTH SOUTH LINE","routeShortName":"NS","routeType":1,"serviceDate":"20231122","startTime":1700648511000,"steps":[],"to":{"arrival":1700648684000,"departure":1700648684000,"lat":1.300213166,"lon":103.839221465,"name":"SOMERSET MRT STATION","stopCode":"NS23","stopId":"FERRY:NS23","stopIndex":5,"stopSequence":6,"vertexType":"TRANSIT"},"transitLeg":true,"tripId":"NS-1-4015"},{"agencyTimeZoneOffset":28800000,"arrivalDelay":0,"departureDelay":0,"distance":166.8862856634,"duration":10,"endTime":1700648694000,"from":{"arrival":1700648684000,"departure":1700648684000,"lat":1.300213166,"lon":103.839221465,"name":"SOMERSET MRT STATION","stopCode":"NS23","stopId":"FERRY:NS23","stopIndex":5,"stopSequence":6,"vertexType":"TRANSIT"},"interlineWithPreviousLeg":false,"intermediateStops":[],"legGeometry":{"length":2,"points":"i}|FcbxxRiGjC"},"mode":"WALK","numIntermediateStops":1,"pathway":false,"realTime":false,"rentedBike":false,"route":"","startTime":1700648684000,"steps":[{"absoluteDirection":"NORTHWEST","area":false,"bogusName":false,"distance":166.8862856634,"elevation":[],"lat":1.300213166,"lon":103.839221465,"relativeDirection":"DEPART","stayOn":false,"streetName":"Transfer"}],"to":{"arrival":1700648694000,"departure":1700648695000,"lat":1.3015426245,"lon":103.838524818,"name":"OPP SOMERSET STN","vertexType":"NORMAL"},"transitLeg":false},{"agencyTimeZoneOffset":28800000,"arrivalDelay":0,"departureDelay":0,"distance":305.472,"duration":271,"endTime":1700648966000,"from":{"arrival":1700648694000,"departure":1700648695000,"lat":1.301542625,"lon":103.838524819,"name":"path","vertexType":"NORMAL"},"interlineWithPreviousLeg":false,"intermediateStops":[],"legGeometry":{"length":24,"points":"se}Fw}wxRGCCJGNSf@IXK\\KVGJIRCDKT?DCBFDXNF@v@p@HHB@JHj@f@Wl@UR"},"mode":"WALK","numIntermediateStops":1,"pathway":false,"realTime":false,"rentedBike":false,"route":"","startTime":1700648695000,"steps":[{"absoluteDirection":"NORTHEAST","area":false,"bogusName":true,"distance":305.472,"elevation":[],"lat":1.301542625,"lon":103.838524819,"relativeDirection":"RIGHT","stayOn":false,"streetName":"path"}],"to":{"arrival":1700648966000,"lat":1.3015210187,"lon":103.836429655,"name":"Destination","orig":"","vertexType":"NORMAL"},"transitLeg":false}],"startTime":1700648445000,"tooSloped":false,"transfers":0,"transitTime":173,"waitingTime":2,"walkDistance":391.7659774391,"walkLimitExceeded":false,"walkTime":346},{"duration":830,"elevationGained":0,"elevationLost":0,"endTime":1700649223000,"fare":"0.99","legs":[{"agencyTimeZoneOffset":28800000,"arrivalDelay":0,"departureDelay":0,"distance":237.462,"duration":199,"endTime":1700648592000,"from":{"departure":1700648393000,"lat":1.2931,"lon":103.852,"name":"Origin","orig":"","vertexType":"NORMAL"},"interlineWithPreviousLeg":false,"intermediateStops":[],"legGeometry":{"length":16,"points":"yp{F}qzxR??DN?@v@^EF?Fg@YkAo@GICBQ\\CFMJs@nAEF"},"mode":"WALK","numIntermediateStops":1,"pathway":false,"realTime":false,"rentedBike":false,"route":"","startTime":1700648393000,"steps":[{"absoluteDirection":"WEST","area":false,"bogusName":false,"distance":237.462,"elevation":[],"lat":1.2930931031,"lon":103.8519960097,"relativeDirection":"DEPART","stayOn":false,"streetName":"path"}],"to":{"arrival":1700648592000,"departure":1700648593000,"lat":1.2939544417,"lon":103.851390966,"name":"CAPITOL BLDG","stopCode":"04111","stopId":"FERRY:04111","stopIndex":23,"stopSequence":25,"vertexType":"TRANSIT"},"transitLeg":false},{"agencyId":"GAS","agencyName":"Go-Ahead Singapore","agencyTimeZoneOffset":28800000,"agencyUrl":"http:\/\/www.go-aheadsingapore.com\/","arrivalDelay":0,"departureDelay":0,"distance":1932.4859008082,"duration":453,"endTime":1700649046000,"from":{"arrival":1700648592000,"departure":1700648593000,"lat":1.2939544417,"lon":103.851390966,"name":"CAPITOL BLDG","stopCode":"04111","stopId":"FERRY:04111","stopIndex":23,"stopSequence":25,"vertexType":"TRANSIT"},"interlineWithPreviousLeg":false,"intermediateStops":[{"arrival":1700648651000,"departure":1700648681000,"lat":1.2961854409,"lon":103.8495803,"name":"SMU","stopCode":"04121","stopId":"FERRY:04121","stopIndex":24,"stopSequence":26,"vertexType":"TRANSIT"},{"arrival":1700648724000,"departure":1700648754000,"lat":1.2981101424,"lon":103.847806369,"name":"YMCA","stopCode":"08041","stopId":"FERRY:08041","stopIndex":25,"stopSequence":27,"vertexType":"TRANSIT"},{"arrival":1700648797000,"departure":1700648827000,"lat":1.2983115378,"lon":103.84525696,"name":"DHOBY GHAUT STN EXIT B","stopCode":"08031","stopId":"FERRY:08031","stopIndex":26,"stopSequence":28,"vertexType":"TRANSIT"},{"arrival":1700648899000,"departure":1700648929000,"lat":1.2998692872,"lon":103.840937461,"name":"WINSLAND HSE","stopCode":"08111","stopId":"FERRY:08111","stopIndex":27,"stopSequence":29,"vertexType":"TRANSIT"},{"arrival":1700648972000,"departure":1700649002000,"lat":1.3002756933,"lon":103.838776185,"name":"SOMERSET STN","stopCode":"08121","stopId":"FERRY:08121","stopIndex":28,"stopSequence":30,"vertexType":"TRANSIT"}],"legGeometry":{"length":58,"points":"iv{FgnzxRKP{AnC}@dB[|@_CkAS?O@KDUR[b@_@b@A@??UR[R]P{@f@{@l@oB`CgArA??CDQZGVB\\BVDJ`@b@\\d@FRBNAf@M`Aw@vDm@vCc@dBe@v@sA|B[h@Wr@Up@UdBGd@]hC??QpAIv@YxBc@hD??w@fGIb@O|@Kj@Mn@lAfA??"},"mode":"BUS","numIntermediateStops":6,"pathway":false,"realTime":false,"rentedBike":false,"route":"36 \/ 175 \/ 106","routeId":"36","routeLongName":"GAS BUS 36","routeShortName":"36","routeType":3,"serviceDate":"20231122","startTime":1700648593000,"steps":[],"to":{"arrival":1700649046000,"departure":1700649047000,"lat":1.3004425176,"lon":103.836238042,"name":"SOMERSET YOUTH PK","stopCode":"09059","stopId":"FERRY:09059","stopIndex":29,"stopSequence":31,"vertexType":"TRANSIT"},"transitLeg":true,"tripId":"36-1-3003"},{"agencyTimeZoneOffset":28800000,"arrivalDelay":0,"departureDelay":0,"distance":183.336,"duration":176,"endTime":1700649223000,"from":{"arrival":1700649046000,"departure":1700649047000,"lat":1.3004425176,"lon":103.836238042,"name":"SOMERSET YOUTH PK","stopCode":"09059","stopId":"FERRY:09059","stopIndex":29,"stopSequence":31,"vertexType":"TRANSIT"},"interlineWithPreviousLeg":false,"intermediateStops":[],"legGeometry":{"length":22,"points":"w~|FmowxR@AMMCBQSSWCIC@E@EAOMC?C?MPA@UQCBCCAQQMWl@UR"},"mode":"WALK","numIntermediateStops":1,"pathway":false,"realTime":false,"rentedBike":false,"route":"","startTime":1700649047000,"steps":[{"absoluteDirection":"SOUTHEAST","area":false,"bogusName":true,"distance":183.336,"elevation":[],"lat":1.300442517,"lon":103.836238042,"relativeDirection":"DEPART","stayOn":false,"streetName":"path"}],"to":{"arrival":1700649223000,"lat":1.3015210187,"lon":103.836429655,"name":"Destination","orig":"","vertexType":"NORMAL"},"transitLeg":false}],"startTime":1700648393000,"tooSloped":false,"transfers":0,"transitTime":453,"waitingTime":2,"walkDistance":421.1713082586,"walkLimitExceeded":false,"walkTime":375}],"to":{"lat":1.3015210187,"lon":103.836429655,"name":"Destination","orig":"","vertexType":"NORMAL"}},"requestParameters":{"arriveBy":"false","date":"11-22-2023","fromPlace":"1.2931,103.852","maxTransfers":"3","maxWalkDistance":"787.1783191477463","mode":"TRANSIT,WALK","numItineraries":"3","otherThanPreferredRoutesPenalty":"0","preferredRoutes":"1__CC,1__DT,1__EW,1__NE,1__NS,1__PE,1__PW,1__SE,1__SS,1__SW,1__CG,1__BP","showIntermediateStops":"true","time":"6:19pm","toPlace":"1.30152101873533,103.836429655016","transferPenalty":"2500","waitAtBeginningFactor":"0.5","walkReluctance":"8"}},{"debugOutput":{"pathCalculationTime":62,"pathTimes":[44,11,7],"precalculationTime":58,"renderingTime":1,"timedOut":false,"totalTime":121},"elevationMetadata":{"ellipsoidToGeoidDifference":7.3773084369,"geoidElevation":false},"plan":{"date":1700648340000,"from":{"lat":1.3015210187,"lon":103.836429655,"name":"Origin","orig":"","vertexType":"NORMAL"},"itineraries":[{"duration":1843,"elevationGained":0,"elevationLost":0,"endTime":1700650275000,"fare":"1.45","legs":[{"agencyTimeZoneOffset":28800000,"arrivalDelay":0,"departureDelay":0,"distance":305.472,"duration":271,"endTime":1700648703000,"from":{"departure":1700648432000,"lat":1.3015210187,"lon":103.836429655,"name":"Origin","orig":"","vertexType":"NORMAL"},"interlineWithPreviousLeg":false,"intermediateStops":[],"legGeometry":{"length":24,"points":"ie}FwpwxRTSVm@k@g@KICAIIw@q@GAYOGEBC?EJUBEHSFKJWJ]HYRg@FOBKFB"},"mode":"WALK","numIntermediateStops":1,"pathway":false,"realTime":false,"rentedBike":false,"route":"","startTime":1700648432000,"steps":[{"absoluteDirection":"SOUTHEAST","area":false,"bogusName":true,"distance":305.472,"elevation":[],"lat":1.301495459,"lon":103.836443586,"relativeDirection":"DEPART","stayOn":false,"streetName":"path"}],"to":{"arrival":1700648703000,"departure":1700648704000,"lat":1.301542625,"lon":103.838524819,"name":"path","vertexType":"NORMAL"},"transitLeg":false},{"agencyTimeZoneOffset":28800000,"arrivalDelay":0,"departureDelay":0,"distance":166.8862856634,"duration":10,"endTime":1700648714000,"from":{"arrival":1700648703000,"departure":1700648704000,"lat":1.3015426245,"lon":103.838524818,"name":"OPP SOMERSET STN","vertexType":"NORMAL"},"interlineWithPreviousLeg":false,"intermediateStops":[],"legGeometry":{"length":2,"points":"se}Fw}wxRhGkC"},"mode":"WALK","numIntermediateStops":1,"pathway":false,"realTime":false,"rentedBike":false,"route":"","startTime":1700648704000,"steps":[{"absoluteDirection":"SOUTHEAST","area":false,"bogusName":false,"distance":166.8862856634,"elevation":[],"lat":1.3015426245,"lon":103.838524818,"relativeDirection":"CONTINUE","stayOn":false,"streetName":"Transfer"}],"to":{"arrival":1700648714000,"departure":1700648714000,"lat":1.300213166,"lon":103.839221465,"name":"SOMERSET MRT STATION","stopCode":"NS23","stopId":"FERRY:NS23","stopIndex":5,"stopSequence":6,"vertexType":"TRANSIT"},"transitLeg":false},{"agencyId":"SMRT","agencyName":"SMRT Corporation","agencyTimeZoneOffset":28800000,"agencyUrl":"http:\/\/www.smrt.com.sg\/","arrivalDelay":0,"departureDelay":0,"distance":6580.6130988464,"duration":704,"endTime":1700649418000,"from":{"arrival":1700648714000,"departure":1700648714000,"lat":1.300213166,"lon":103.839221465,"name":"SOMERSET MRT STATION","stopCode":"NS23","stopId":"FERRY:NS23","stopIndex":5,"stopSequence":6,"vertexType":"TRANSIT"},"interlineWithPreviousLeg":false,"intermediateStops":[{"arrival":1700648796000,"departure":1700648826000,"lat":1.3038150312,"lon":103.832272194,"name":"ORCHARD MRT STATION","stopCode":"NS22","stopId":"FERRY:NS22","stopIndex":6,"stopSequence":7,"vertexType":"TRANSIT"},{"arrival":1700648923000,"departure":1700648953000,"lat":1.3125291106,"lon":103.838036234,"name":"NEWTON MRT STATION","stopCode":"NS21","stopId":"FERRY:NS21","stopIndex":7,"stopSequence":8,"vertexType":"TRANSIT"},{"arrival":1700649045000,"departure":1700649075000,"lat":1.3204583552,"lon":103.843842645,"name":"NOVENA MRT STATION","stopCode":"NS20","stopId":"FERRY:NS20","stopIndex":8,"stopSequence":9,"vertexType":"TRANSIT"},{"arrival":1700649192000,"departure":1700649222000,"lat":1.3324628752,"lon":103.84758934,"name":"TOA PAYOH MRT STATION","stopCode":"NS19","stopId":"FERRY:NS19","stopIndex":9,"stopSequence":10,"vertexType":"TRANSIT"},{"arrival":1700649293000,"departure":1700649323000,"lat":1.340158424,"lon":103.846746851,"name":"BRADDELL MRT STATION","stopCode":"NS18","stopId":"FERRY:NS18","stopIndex":10,"stopSequence":11,"vertexType":"TRANSIT"}],"legGeometry":{"length":212,"points":"c}|FabxxRAJc@|CWvAYzAIn@Ir@Al@?j@Dr@^jDFt@@n@An@Ch@Gf@Mn@Ql@Sd@OZWb@W\\[\\YV_@X[R]Pa@Nw@Vs@N}@Hm@BiCJQ?sCJQ?Q?Q?Q?QAQAQAQCQCOCQCQEOEQE_@O}MwEo@W_@OOGOGOIOGOIMIOIMIMKMIMKMKMKKKMKKMMKKMKMIKKMIOU[]k@_JqOYe@eCiEy@iAaAgAw@u@w@q@_Am@}@g@_Bm@aAWeAS}ASaCYo@Mw@U{@[OGMGOIOIMIMIOKMIYW[W[W}GaGCCgFoEk@e@WSMK[U]U]SMI]SOIOG]Q_@QOGOGa@OOG_@Ma@Ma@KOEc@KOEc@Ia@Ic@Ga@GWC]EuEa@u@Gc@GOCi@I[Gc@Ga@Ka@Is@QiD}@a@Ka@Ic@IUE]EQCQAQAQAQAQAQ?Q?Q@Q?Q@Q@Q@Q@Q@QBc@DmEl@c@FcDb@{ATk@Jm@N}@Vo@VeAd@cBp@y@T}@PcAJ_ABcAAs@Eu@Ke@Is@Q_A[m@Qm@Ku@IwCKc@AgDIc@AY?mD?u@?u@@iFHu@@c@?e@Ac@AQAc@COCc@Ec@EeRgCuL_B"},"mode":"SUBWAY","numIntermediateStops":6,"pathway":false,"realTime":false,"rentedBike":false,"route":"NS","routeId":"NS","routeLongName":"NORTH SOUTH LINE","routeShortName":"NS","routeType":1,"serviceDate":"20231122","startTime":1700648714000,"steps":[],"to":{"arrival":1700649418000,"departure":1700649418000,"lat":1.3508268528,"lon":103.848180082,"name":"BISHAN MRT STATION","stopCode":"NS17","stopId":"FERRY:NS17","stopIndex":11,"stopSequence":12,"vertexType":"TRANSIT"},"transitLeg":true,"tripId":"NS-1-4015"},{"agencyTimeZoneOffset":28800000,"arrivalDelay":0,"departureDelay":0,"distance":151.4687041944,"duration":20,"endTime":1700649438000,"from":{"arrival":1700649418000,"departure":1700649418000,"lat":1.3508268528,"lon":103.848180082,"name":"BISHAN MRT STATION","stopCode":"NS17","stopId":"FERRY:NS17","stopIndex":11,"stopSequence":12,"vertexType":"TRANSIT"},"interlineWithPreviousLeg":false,"intermediateStops":[],"legGeometry":{"length":2,"points":"syfGczyxR_B}F"},"mode":"WALK","numIntermediateStops":1,"pathway":false,"realTime":false,"rentedBike":false,"route":"","startTime":1700649418000,"steps":[{"absoluteDirection":"EAST","area":false,"bogusName":false,"distance":151.4687041944,"elevation":[],"lat":1.3508268528,"lon":103.848180082,"relativeDirection":"DEPART","stayOn":false,"streetName":"Transfer"}],"to":{"arrival":1700649438000,"departure":1700649538000,"lat":1.3513035643,"lon":103.849456487,"name":"BISHAN MRT STATION","stopCode":"CC15","stopId":"FERRY:CC15","stopIndex":14,"stopSequence":15,"vertexType":"TRANSIT"},"transitLeg":false},{"agencyId":"SMRT","agencyName":"SMRT Corporation","agencyTimeZoneOffset":28800000,"agencyUrl":"http:\/\/www.smrt.com.sg\/","arrivalDelay":0,"departureDelay":0,"distance":1139.8409939932,"duration":116,"endTime":1700649654000,"from":{"arrival":1700649438000,"departure":1700649538000,"lat":1.3513035643,"lon":103.849456487,"name":"BISHAN MRT STATION","stopCode":"CC15","stopId":"FERRY:CC15","stopIndex":14,"stopSequence":15,"vertexType":"TRANSIT"},"interlineWithPreviousLeg":false,"intermediateStops":[],"legGeometry":{"length":30,"points":"}{fG}azxRAD_@fC[vBk@lCUjAI|@S`EUfBi@jB{@zBk@dBSr@Ov@Ix@AbAFbAJ|@Rz@Vp@^t@v@bAt@p@t@b@|An@lATtALrEVpBPn@D"},"mode":"SUBWAY","numIntermediateStops":1,"pathway":false,"realTime":false,"rentedBike":false,"route":"CC","routeId":"CC","routeLongName":"CIRCLE LINE","routeShortName":"CC","routeType":1,"serviceDate":"20231122","startTime":1700649538000,"steps":[],"to":{"arrival":1700649654000,"departure":1700649655000,"lat":1.3485936158,"lon":103.839567616,"name":"MARYMOUNT MRT STATION","stopCode":"CC16","stopId":"FERRY:CC16","stopIndex":15,"stopSequence":16,"vertexType":"TRANSIT"},"transitLeg":true,"tripId":"CC-1-4014"},{"agencyTimeZoneOffset":28800000,"arrivalDelay":0,"departureDelay":0,"distance":728.119,"duration":620,"endTime":1700650275000,"from":{"arrival":1700649654000,"departure":1700649655000,"lat":1.3485936158,"lon":103.839567616,"name":"MARYMOUNT MRT STATION","stopCode":"CC16","stopId":"FERRY:CC16","stopIndex":15,"stopSequence":16,"vertexType":"TRANSIT"},"interlineWithPreviousLeg":false,"intermediateStops":[],"legGeometry":{"length":183,"points":"ukfGgdxxR_AJEbAF@D?H@BADF@@@BBHBR@D?LAD?DAN?D@B@D?J@N@L?DBH?DDN?B@H?HAR?R?BAB?@CDCDKFSPOHMDMFMHMFKHMHKHIFIHIHIHIHGHGHQPl@n@UPOJQLQLOLQJOLQL?@AB?@A@?@?@?B?@?@?@@BA?IDC@ID???AA????AA??A??A??AA???A??AA?A???A???A???A???A@??A?A??@A???A@A???A@A?A@A?A@A?A@C?A@C@C@C@C@C??@A?A???A@A???A??@A?????A??@C?A?A@A?A@C?A@u@PQDMBA@OD??@@??@@?@??@@?@???@?@??@@?@?????????????@????@??????@????@?@J"},"mode":"WALK","numIntermediateStops":1,"pathway":false,"realTime":false,"rentedBike":false,"route":"","startTime":1700649655000,"steps":[{"absoluteDirection":"NORTH","area":false,"bogusName":true,"distance":728.119,"elevation":[],"lat":1.348593616,"lon":103.839567616,"relativeDirection":"DEPART","stayOn":false,"streetName":"path"}],"to":{"arrival":1700650275000,"lat":1.3514635239,"lon":103.8353445998,"name":"Destination","orig":"","vertexType":"NORMAL"},"transitLeg":false}],"startTime":1700648432000,"tooSloped":false,"transfers":1,"transitTime":820,"waitingTime":102,"walkDistance":1034.0725789318,"walkLimitExceeded":false,"walkTime":921},{"duration":1901,"elevationGained":0,"elevationLost":0,"endTime":1700650396000,"fare":"1.45","legs":[{"agencyTimeZoneOffset":28800000,"arrivalDelay":0,"departureDelay":0,"distance":858.249,"duration":701,"endTime":1700649196000,"from":{"departure":1700648495000,"lat":1.3015210187,"lon":103.836429655,"name":"Origin","orig":"","vertexType":"NORMAL"},"interlineWithPreviousLeg":false,"intermediateStops":[],"legGeometry":{"length":51,"points":"ie}FwpwxRTSVm@PL@PBBBCTP?@?DXVTTDH@BDBFDTXLVFNDVAJ?DERMf@EFIHKDK@E@EA?DVP\\PKVABABOTi@v@m@p@wArAqClCBD\\XDDkAnA@BGHs@v@CBkAtA]f@"},"mode":"WALK","numIntermediateStops":1,"pathway":false,"realTime":false,"rentedBike":false,"route":"","startTime":1700648495000,"steps":[{"absoluteDirection":"SOUTHEAST","area":false,"bogusName":true,"distance":858.249,"elevation":[],"lat":1.301495459,"lon":103.836443586,"relativeDirection":"DEPART","stayOn":false,"streetName":"path"}],"to":{"arrival":1700649196000,"departure":1700649197000,"lat":1.3032349615,"lon":103.831373771,"name":"ORCHARD MRT STATION","stopCode":"TE14","stopId":"FERRY:TE14","stopIndex":8,"stopSequence":9,"vertexType":"TRANSIT"},"transitLeg":false},{"agencyId":"SMRT","agencyName":"SMRT Corporation","agencyTimeZoneOffset":28800000,"agencyUrl":"http:\/\/www.smrt.com.sg\/","arrivalDelay":0,"departureDelay":0,"distance":7813.5546728217,"duration":841,"endTime":1700650038000,"from":{"arrival":1700649196000,"departure":1700649197000,"lat":1.3032349615,"lon":103.831373771,"name":"ORCHARD MRT STATION","stopCode":"TE14","stopId":"FERRY:TE14","stopIndex":8,"stopSequence":9,"vertexType":"TRANSIT"},"interlineWithPreviousLeg":false,"intermediateStops":[{"arrival":1700649274000,"departure":1700649304000,"lat":1.3023642356,"lon":103.823663902,"name":"ORCHARD BOULEVARD MRT STATION","stopCode":"TE13","stopId":"FERRY:TE13","stopIndex":9,"stopSequence":10,"vertexType":"TRANSIT"},{"arrival":1700649372000,"departure":1700649402000,"lat":1.3065862494,"lon":103.818876539,"name":"NAPIER MRT STATION","stopCode":"TE12","stopId":"FERRY:TE12","stopIndex":10,"stopSequence":11,"vertexType":"TRANSIT"},{"arrival":1700649537000,"departure":1700649567000,"lat":1.3194784377,"lon":103.825619092,"name":"STEVENS MRT STATION","stopCode":"TE11","stopId":"FERRY:TE11","stopIndex":11,"stopSequence":12,"vertexType":"TRANSIT"},{"arrival":1700649698000,"departure":1700649728000,"lat":1.3284757919,"lon":103.83495613,"name":"MOUNT PLEASANT MRT STATION","stopCode":"TE10","stopId":"FERRY:TE10","stopIndex":12,"stopSequence":13,"vertexType":"TRANSIT"},{"arrival":1700649836000,"departure":1700649866000,"lat":1.3373770398,"lon":103.840170472,"name":"CALDECOTT MRT STATION","stopCode":"TE9","stopId":"FERRY:TE9","stopIndex":13,"stopSequence":14,"vertexType":"TRANSIT"}],"legGeometry":{"length":2365,"points":"ao}FsovxRCBuAdAEBCBCBEBCBEBCDCBEBCBCBSRQROTOTMVMVKVIVIXGXEXEXCZCXAZ?X@Z@XBXDZDXFXHXHVJVJVLVNTNTPRBDBBDBBDBBBBDBBDBBBBDBBDBBDBBBBDDBBBBBDDBBBBBBDDBBBBBDBBPRNTNTJTLVJTHXHVFV?F@D@D@D@D?D@D@D?F@D@D?D@D@DHx@^|CZpCBZ@Z@X??A^?^C^C^E^E^I\\I^I\\MZM\\MZQZQXQXSXUVUTWVWRWRYR[P[N[L]L[L]H_@J]F_@D_@D_@D_@@G?G@E?G?G?G?E?G?G?G?C?}B@A?_D@[?G?E?G?E?G?E?G?E?G?E?G?E?G?EAG?E?G?EA]A]E[E[E[I[I[KYKYMYMWQWOUSUQUUSSQWQUCEEEAECECECECECECECECEAECECECEAECECEWg@CEAECECECEAECECECECECECEAECECECCCECEQWQUSSUSSSWQUQWOYOEAECECEAECECEAGCEAECEAECEAGCEAEAECEAgBo@IAGCGCGCGCGCGCGCGCGCGC[M[MYOYQGCGEGCEEGCGEEEGCGEEEGCaKwGECCCECECCCEACCECECCCEAECECCCWKWKWKYIYGYGYEYC[CYA[?Y?G@E?E?E?C@aDPC?}CV??G?E@??E?G@E?A?C?G?E@E?G?E?E?E?E?E?E?G?E?G?EAE?G?EAE?GAE?EAG?EAEAG?EAEAGAEAEAEAGAEAEAEAGAEAEAECEAEAEAGCEAEAECqAa@s@WGAGCICGCGCGAGCGCICGCGCIEGCGCGCGCGCGCGCGEGCEAcGoCo@Y??A?AA??A??AA?A??AA?A??AA???AAA???AAA??AA???AAA???AAA???AA??A?AA??A?AA??AA??A?AA??A??AA?A??AA?A??AA??AA?A??AA???AAA??AA???AAA???AA??AAA???AA??AAA???AA??A?AA??AA??A?AA??AA??A??AECECECECEEECECCEECECEECCEECCEEECCEEECCCEEECECCEECECECECEEECECECECECEAECECECECEAECGCEAECEAGCE?A??AA?A???AAA???A?AA??A?AA??A???AAA???A?AA??A?A??AA?A???AAA???A?AA??A?A??AA?A???AAA???A?A??AA?A???AAA?A???A?AA??A?A??AA?A???A?AA??A?A??AA?A???A?AA??A?A???AAA???A?AA??A?A???AAA?A???A?AA??A?AiGsYc@sBa@_CeAsEa@iB?AAA?A???AAA?A???AAA?A?A??AA?A?A?AA??A?A?A??AA?A?A?AA??A?A?AA??A?AG[G[?A?A??AA?A?A?A??AA?A?A?A??AA?A?A?A??AA?A?A?A??AA?A?A?A??AA?A?A???AUwA???A?AA??A?A???A?AA??A?A?A???AAA???A?A???AAA???A?A??AA?A?A???A?AA??A?A???A?AA??A?A???AAA?A???A?AA??A?A???A?AA??A?A???AAA???A?AA??A?A???AAA?A???A?AA??A?A??AA?A???A?AA??A?A??AA?A???AAA???A?AA?IYKYKWMWOUOUQUQSSSSQSQUOUMUMWMWKWIYIYGYEYEYCYCA?A?A???A?A???A?A?A???A?A???AAA?A???A?A?q@???A?A?A???A?A???A?A?A???A?A???A?A???A?A?A???A?A???A?A?A???A?A???A?A?A???A?A???A?wA@Q@sCBoA@gJF]@aFD\\A_@@sCBA???A?????A???A???A???A???A???A???A???A???A???A?????A@??A???A???A???A???A???A???A???A?E@E?G?E@E@E?G@E?E@G@E@E?E@G@E@E@E@E@G@E@E@E@EBA?????A??@A???A???A@????A???A??@A???A????@A???A???A@????A???A@??A?????A??@A???A????@A???A???A@????A???A@??A???A@????A???A@????A???A@??A?????A@??A???A??@??A???A@??A?????A@??A???A??@??A???A??@A?????A@??A???A??@??A???A??@A?????A??@A???A??@??A???A??@A?????A??@A???A????@A???A???A@????A???A@??A?????A@??A???A??@??A???A??@A?????A??@A???A????@A???A???A@??A?????A??@A???A????@A???A???A??@E@G@E@EBG@E@E@G@E@G@E@E@G?E@G@E@G?E@G?E@G?E@G???A???A??@A?????A???A???A???A???A???A???A???A???A?????A???A@??A???A???A???A???A???A???A???A?????A???A???A???A???A???A???A???A???A?????A???A???A???A??@A???A???A???A???A???A?????A???A???A???A?{A@??A???A???A?A???A???A???A???A???A???A???A@??A???A???A???A???A???A???A???A???A???A???A?A???A???A???A???A???A???A???A???A???A???A@??A???A???A???A???A???A???A???A???A?A???A???A???G@G?G@E?G@G?G@G@E?G@G@G@E?G@G@G@E@A??@A???A???A???A@??A???A???A??@A???A???A???A@??A???A???A@??A???A???A??@A???A???A??@A???A?????A@??A???A???A@??A???A???A@??A???A???A@??A???A???A@??A???A???A@??A?????E@IBKBG@C@??A?A??@A???A???????A@A???A???A@A???????A???A@A???A???A??@A?A???A??@A?A???A???A@A???A???A@A???A???A?A@??A???A???A@A???A?A?????A@??A???A?A???A@??G@G?E@G@E@G?G@E???G@E?E@??A?A???A???A?A???A?A???A??@A?A???A?A???A???A?A???A???A?A???????A?A???A???A@A???A???A?A???A?A???A???A?A???A?A???A???A?A???????A???A?A???A?A???A???A?A???A???A?A@??A?A???A???A?A???A?A???????A???A?A???A???Q?W???c@@??W?A???A???A?A???A???A???A?A???A???A???A?A???A???A???A?A???A???A???A?A???A???A@??A?A???A???A???A?A???A???A???A?A???A???A???A???A?A???A???A???A?A???A@??A???A?A???A???A???A?A???A???A???A?A???A??@G?G?E@G?G@E?G@G@E?G@G@??E@G@G@G@E@G@G@G@E@A??@A???A?A???A@??A???A??@A???A???A@A???A???A??@A???A???A@??A?A???A@??A???A??@A???A??@A???A?A??@A???A???A@??A???A??@A???A??@A?A???A??@A???A???A@??A???A@??A???A??@A?A???A@??A???A??@A???A???A@sC|@A???A???A@??A?A??@A???A??@A???A???A@??A?A??@A???A???A@??A???A@??A?A??@A???A???A@??A???A@??A?A??@A???A??@A???A???A@??A?A??@A???A??@A???A??@A???A??@A?A???A@E@GBGBGBGBGBGBEDGBGBGBEBGDGBEBGDEBGDGBEDGB???@A??@A???A@??A??@A???A@??A??@A????@A??@A???A@??A??@A???A@???@A???A@??A??@A???A@???@A???A@??A??@A???A@??A@????A@??A??@A??@A???A@????A@??A??@A??@A???A@??iCnB?@A???A@??A??@A????@A??@A???A@??A??@??A??@A??@A???A@????A@??A??@A???A@???@A???A@??A??@A????@A???A@??A??@A???A@???@A???A@??A??@A???A@????A@??A??@A???A@??A??@??GDGBEDGBEBGDGBEDGBGBEBGBGDGBGBEBGBA???A??@A???A??@A???A??@A???A??@A???A??@A???A?A@??A???A@??A???A@??A???A@??A???A@??A???A@??A???A??@A?A???A@??A???A@??A???A@??A???A??@A???A??@A???A?A@??A???A@??wAd@??A@??A???A@A???A??@A???A???A@??A???A@??A???A@??A???A@??A???A??@A???A??@A???A??@A?A???A@??A???A??@A???A??@A???A??@A???A??@A???A??@A???A??@A???A??@A???A??@A???A?GBGBEBGDGBGBEBGBGDEBGBGDEBGDEBGDEBGDEBGDEDEBGDEDEDGDEDEBEDEDEDEDEFEDEDEDEDEDEFEDEDCFEDEDCFEDEFCDEFCDEFCDCFEF????A@???@??A@???@A??@??A@???@??A@???@A???ABw@`B"},"mode":"TRAM","numIntermediateStops":6,"pathway":false,"realTime":false,"rentedBike":false,"route":"TE","routeId":"TE","routeLongName":"THOMSON-EAST COAST LINE","routeShortName":"TE","routeType":0,"serviceDate":"20231122","startTime":1700649197000,"steps":[],"to":{"arrival":1700650038000,"departure":1700650039000,"lat":1.3542788096,"lon":103.833148841,"name":"UPPER THOMSON MRT STATION","stopCode":"TE8","stopId":"FERRY:TE8","stopIndex":14,"stopSequence":15,"vertexType":"TRANSIT"},"transitLeg":true,"tripId":"TE-2-4006"},{"agencyTimeZoneOffset":28800000,"arrivalDelay":0,"departureDelay":0,"distance":436.681,"duration":357,"endTime":1700650396000,"from":{"arrival":1700650038000,"departure":1700650039000,"lat":1.3542788096,"lon":103.833148841,"name":"UPPER THOMSON MRT STATION","stopCode":"TE8","stopId":"FERRY:TE8","stopIndex":14,"stopSequence":15,"vertexType":"TRANSIT"},"interlineWithPreviousLeg":false,"intermediateStops":[],"legGeometry":{"length":89,"points":"sngGu{vxRn@{@DELOj@s@p@}@@??A????@???@A????@CRQBA?CPM@A@A@A@A@A?A@ABC@ABC@CBC@CBCFKHIFKHIHIHIHIFEDGFEDEFGFEDEPMRKRKPKTIRGTGTGJCDA??@@??@@?@??@@?@???@?@??@@?@?????????????@????@??????@????@?@J"},"mode":"WALK","numIntermediateStops":1,"pathway":false,"realTime":false,"rentedBike":false,"route":"","startTime":1700650039000,"steps":[{"absoluteDirection":"SOUTHEAST","area":false,"bogusName":true,"distance":436.681,"elevation":[],"lat":1.3541837801,"lon":103.8330727749,"relativeDirection":"DEPART","stayOn":false,"streetName":"path"}],"to":{"arrival":1700650396000,"lat":1.3514635239,"lon":103.8353445998,"name":"Destination","orig":"","vertexType":"NORMAL"},"transitLeg":false}],"startTime":1700648495000,"tooSloped":false,"transfers":0,"transitTime":841,"waitingTime":2,"walkDistance":1295.3386466034,"walkLimitExceeded":false,"walkTime":1058},{"duration":1922,"elevationGained":0,"elevationLost":0,"endTime":1700650354000,"fare":"1.45","legs":[{"agencyTimeZoneOffset":28800000,"arrivalDelay":0,"departureDelay":0,"distance":305.472,"duration":271,"endTime":1700648703000,"from":{"departure":1700648432000,"lat":1.3015210187,"lon":103.836429655,"name":"Origin","orig":"","vertexType":"NORMAL"},"interlineWithPreviousLeg":false,"intermediateStops":[],"legGeometry":{"length":24,"points":"ie}FwpwxRTSVm@k@g@KICAIIw@q@GAYOGEBC?EJUBEHSFKJWJ]HYRg@FOBKFB"},"mode":"WALK","numIntermediateStops":1,"pathway":false,"realTime":false,"rentedBike":false,"route":"","startTime":1700648432000,"steps":[{"absoluteDirection":"SOUTHEAST","area":false,"bogusName":true,"distance":305.472,"elevation":[],"lat":1.301495459,"lon":103.836443586,"relativeDirection":"DEPART","stayOn":false,"streetName":"path"}],"to":{"arrival":1700648703000,"departure":1700648704000,"lat":1.301542625,"lon":103.838524819,"name":"path","vertexType":"NORMAL"},"transitLeg":false},{"agencyTimeZoneOffset":28800000,"arrivalDelay":0,"departureDelay":0,"distance":166.8862856634,"duration":10,"endTime":1700648714000,"from":{"arrival":1700648703000,"departure":1700648704000,"lat":1.3015426245,"lon":103.838524818,"name":"OPP SOMERSET STN","vertexType":"NORMAL"},"interlineWithPreviousLeg":false,"intermediateStops":[],"legGeometry":{"length":2,"points":"se}Fw}wxRhGkC"},"mode":"WALK","numIntermediateStops":1,"pathway":false,"realTime":false,"rentedBike":false,"route":"","startTime":1700648704000,"steps":[{"absoluteDirection":"SOUTHEAST","area":false,"bogusName":false,"distance":166.8862856634,"elevation":[],"lat":1.3015426245,"lon":103.838524818,"relativeDirection":"CONTINUE","stayOn":false,"streetName":"Transfer"}],"to":{"arrival":1700648714000,"departure":1700648714000,"lat":1.300213166,"lon":103.839221465,"name":"SOMERSET MRT STATION","stopCode":"NS23","stopId":"FERRY:NS23","stopIndex":5,"stopSequence":6,"vertexType":"TRANSIT"},"transitLeg":false},{"agencyId":"SMRT","agencyName":"SMRT Corporation","agencyTimeZoneOffset":28800000,"agencyUrl":"http:\/\/www.smrt.com.sg\/","arrivalDelay":0,"departureDelay":0,"distance":2031.8414237392,"duration":209,"endTime":1700648923000,"from":{"arrival":1700648714000,"departure":1700648714000,"lat":1.300213166,"lon":103.839221465,"name":"SOMERSET MRT STATION","stopCode":"NS23","stopId":"FERRY:NS23","stopIndex":5,"stopSequence":6,"vertexType":"TRANSIT"},"interlineWithPreviousLeg":false,"intermediateStops":[{"arrival":1700648796000,"departure":1700648826000,"lat":1.3038150312,"lon":103.832272194,"name":"ORCHARD MRT STATION","stopCode":"NS22","stopId":"FERRY:NS22","stopIndex":6,"stopSequence":7,"vertexType":"TRANSIT"}],"legGeometry":{"length":79,"points":"c}|FabxxRAJc@|CWvAYzAIn@Ir@Al@?j@Dr@^jDFt@@n@An@Ch@Gf@Mn@Ql@Sd@OZWb@W\\[\\YV_@X[R]Pa@Nw@Vs@N}@Hm@BiCJQ?sCJQ?Q?Q?Q?QAQAQAQCQCOCQCQEOEQE_@O}MwEo@W_@OOGOGOIOGOIMIOIMIMKMIMKMKMKKKMKKMMKKMKMIKKMIOU[]k@_JqOYe@"},"mode":"SUBWAY","numIntermediateStops":2,"pathway":false,"realTime":false,"rentedBike":false,"route":"NS","routeId":"NS","routeLongName":"NORTH SOUTH LINE","routeShortName":"NS","routeType":1,"serviceDate":"20231122","startTime":1700648714000,"steps":[],"to":{"arrival":1700648923000,"departure":1700648923000,"lat":1.3125291106,"lon":103.838036234,"name":"NEWTON MRT STATION","stopCode":"NS21","stopId":"FERRY:NS21","stopIndex":7,"stopSequence":8,"vertexType":"TRANSIT"},"transitLeg":true,"tripId":"NS-1-4015"},{"agencyTimeZoneOffset":28800000,"arrivalDelay":0,"departureDelay":0,"distance":31.6683086701,"duration":10,"endTime":1700648933000,"from":{"arrival":1700648923000,"departure":1700648923000,"lat":1.3125291106,"lon":103.838036234,"name":"NEWTON MRT STATION","stopCode":"NS21","stopId":"FERRY:NS21","stopIndex":7,"stopSequence":8,"vertexType":"TRANSIT"},"interlineWithPreviousLeg":false,"intermediateStops":[],"legGeometry":{"length":2,"points":"gj_GuzwxRWs@"},"mode":"WALK","numIntermediateStops":1,"pathway":false,"realTime":false,"rentedBike":false,"route":"","startTime":1700648923000,"steps":[{"absoluteDirection":"NORTHEAST","area":false,"bogusName":false,"distance":31.6683086701,"elevation":[],"lat":1.3125291106,"lon":103.838036234,"relativeDirection":"DEPART","stayOn":false,"streetName":"Transfer"}],"to":{"arrival":1700648933000,"departure":1700648996000,"lat":1.3126426254,"lon":103.838297502,"name":"NEWTON STN EXIT A","stopCode":"40181","stopId":"FERRY:40181","stopIndex":16,"stopSequence":17,"vertexType":"TRANSIT"},"transitLeg":false},{"agencyId":"SBST","agencyName":"SBS Transit","agencyTimeZoneOffset":28800000,"agencyUrl":"http:\/\/www.sbstransit.com.sg\/","arrivalDelay":0,"departureDelay":0,"distance":4953.7477441969,"duration":1152,"endTime":1700650148000,"from":{"arrival":1700648933000,"departure":1700648996000,"lat":1.3126426254,"lon":103.838297502,"name":"NEWTON STN EXIT A","stopCode":"40181","stopId":"FERRY:40181","stopIndex":16,"stopSequence":17,"vertexType":"TRANSIT"},"interlineWithPreviousLeg":false,"intermediateStops":[{"arrival":1700649054000,"departure":1700649084000,"lat":1.3145816493,"lon":103.840531903,"name":"OPP NEWTON LIFE CH","stopCode":"40121","stopId":"FERRY:40121","stopIndex":17,"stopSequence":18,"vertexType":"TRANSIT"},{"arrival":1700649127000,"departure":1700649157000,"lat":1.3174350002,"lon":103.841437899,"name":"OPP HOTEL ROYAL","stopCode":"50061","stopId":"FERRY:50061","stopIndex":18,"stopSequence":19,"vertexType":"TRANSIT"},{"arrival":1700649244000,"departure":1700649274000,"lat":1.3212730729,"lon":103.841771724,"name":"OPP NOVENA CH","stopCode":"50031","stopId":"FERRY:50031","stopIndex":19,"stopSequence":20,"vertexType":"TRANSIT"},{"arrival":1700649317000,"departure":1700649347000,"lat":1.3236233333,"lon":103.841615457,"name":"NOVENA LODGE","stopCode":"50041","stopId":"FERRY:50041","stopIndex":20,"stopSequence":21,"vertexType":"TRANSIT"},{"arrival":1700649376000,"departure":1700649406000,"lat":1.3256128334,"lon":103.841861487,"name":"THOMSON MED CTR","stopCode":"50051","stopId":"FERRY:50051","stopIndex":21,"stopSequence":22,"vertexType":"TRANSIT"},{"arrival":1700649449000,"departure":1700649479000,"lat":1.3277044799,"lon":103.840954722,"name":"OPP TAN TONG MENG TWR","stopCode":"51011","stopId":"FERRY:51011","stopIndex":22,"stopSequence":23,"vertexType":"TRANSIT"},{"arrival":1700649536000,"departure":1700649566000,"lat":1.330325,"lon":103.839258889,"name":"OLD POLICE ACAD","stopCode":"51021","stopId":"FERRY:51021","stopIndex":23,"stopSequence":24,"vertexType":"TRANSIT"},{"arrival":1700649610000,"departure":1700649640000,"lat":1.3322325362,"lon":103.838388933,"name":"S'PORE POLO CLUB","stopCode":"51031","stopId":"FERRY:51031","stopIndex":24,"stopSequence":25,"vertexType":"TRANSIT"},{"arrival":1700649712000,"departure":1700649742000,"lat":1.3363535273,"lon":103.83707802,"name":"AFT ANDREW RD","stopCode":"51051","stopId":"FERRY:51051","stopIndex":25,"stopSequence":26,"vertexType":"TRANSIT"},{"arrival":1700649842000,"departure":1700649872000,"lat":1.34219257,"lon":103.835965765,"name":"MACRITCHIE RESERVOIR","stopCode":"51071","stopId":"FERRY:51071","stopIndex":26,"stopSequence":27,"vertexType":"TRANSIT"},{"arrival":1700649944000,"departure":1700649974000,"lat":1.3455535114,"lon":103.838263355,"name":"ST. THERESA'S HME","stopCode":"53011","stopId":"FERRY:53011","stopIndex":27,"stopSequence":28,"vertexType":"TRANSIT"},{"arrival":1700650061000,"departure":1700650091000,"lat":1.3490410831,"lon":103.837084936,"name":"LAKEVIEW EST","stopCode":"53021","stopId":"FERRY:53021","stopIndex":28,"stopSequence":29,"vertexType":"TRANSIT"}],"legGeometry":{"length":162,"points":"kj_Gw|wxRk@cAa@@SEIGy@kAAGASDSsDgEi@m@EC??{@i@wA_@k@KOC[EKCkBYqAUaCc@IAGA_@Iq@O_@Mm@]a@g@GGiAyAS[y@q@e@Mo@Ag@F}BbBi@b@g@^}@f@EBA@IBMD??WJc@LuA^Y@K?k@?uAI_@CEAu@GMA_@CC?iBOcAKKAeBKeACi@@??U@m@De@Je@JI@KD}Ap@_A`@G@OHsAf@??k@TcFtB_@Pe@Rk@^g@j@m@r@q@r@??KJeAj@a@J]JmBj@C@oBj@A@??sBl@{Bn@KBo@\\uBdBo@ZgB`@s@?q@EiCSEAKA{BU_ACmBDa@?a@A{AHsBNkANa@Nw@`@oA~@cAp@eB~@a@Dc@?]N_@s@?AuAmCgAyC_@s@]g@oC_@_FSiBKKAgAGyDUuAXy@X}BlAULUJmAn@eAj@?@GBiA`Aq@l@aA|@q@d@WLYLSLeCj@ODUHk@Py@\\g@Xa@TQPcAdAIJi@n@"},"mode":"BUS","numIntermediateStops":13,"pathway":false,"realTime":false,"rentedBike":false,"route":"162","routeId":"162","routeLongName":"SBST BUS 162","routeShortName":"162","routeType":3,"serviceDate":"20231122","startTime":1700648996000,"steps":[],"to":{"arrival":1700650148000,"departure":1700650149000,"lat":1.3530783161,"lon":103.83436396,"name":"BEF THOMSON RIDGE","stopCode":"53041","stopId":"FERRY:53041","stopIndex":29,"stopSequence":30,"vertexType":"TRANSIT"},"transitLeg":true,"tripId":"162-2-3005"},{"agencyTimeZoneOffset":28800000,"arrivalDelay":0,"departureDelay":0,"distance":248.575,"duration":205,"endTime":1700650354000,"from":{"arrival":1700650148000,"departure":1700650149000,"lat":1.3530783161,"lon":103.83436396,"name":"BEF THOMSON RIDGE","stopCode":"53041","stopId":"FERRY:53041","stopIndex":29,"stopSequence":30,"vertexType":"TRANSIT"},"interlineWithPreviousLeg":false,"intermediateStops":[],"legGeometry":{"length":64,"points":"uggGwcwxR@@BC@ABC@CBC@CBCFKHIFKHIHIHIHIFEDGFEDEFGFEDEPMRKRKPKTIRGTGTGJCDA??@@??@@?@??@@?@???@?@??@@?@?????????????@????@??????@????@?@J"},"mode":"WALK","numIntermediateStops":1,"pathway":false,"realTime":false,"rentedBike":false,"route":"","startTime":1700650149000,"steps":[{"absoluteDirection":"SOUTHWEST","area":false,"bogusName":true,"distance":248.575,"elevation":[],"lat":1.353078316,"lon":103.834363959,"relativeDirection":"DEPART","stayOn":false,"streetName":"path"}],"to":{"arrival":1700650354000,"lat":1.3514635239,"lon":103.8353445998,"name":"Destination","orig":"","vertexType":"NORMAL"},"transitLeg":false}],"startTime":1700648432000,"tooSloped":false,"transfers":1,"transitTime":1361,"waitingTime":65,"walkDistance":554.2951202927,"walkLimitExceeded":false,"walkTime":496}],"to":{"lat":1.3514635239,"lon":103.8353445998,"name":"Destination","orig":"","vertexType":"NORMAL"}},"requestParameters":{"arriveBy":"false","date":"11-22-2023","fromPlace":"1.30152101873533,103.836429655016","maxTransfers":"3","maxWalkDistance":"1000","mode":"TRANSIT,WALK","numItineraries":"3","otherThanPreferredRoutesPenalty":"0","preferredRoutes":"1__CC,1__DT,1__EW,1__NE,1__NS,1__PE,1__PW,1__SE,1__SS,1__SW,1__CG,1__BP","showIntermediateStops":"true","time":"6:19pm","toPlace":"1.35146352387757,103.835344599828","transferPenalty":"1","waitAtBeginningFactor":"0.5","walkReluctance":"2"}},{"debugOutput":{"pathCalculationTime":50,"pathTimes":[20,18,12],"precalculationTime":58,"renderingTime":0,"timedOut":false,"totalTime":108},"elevationMetadata":{"ellipsoidToGeoidDifference":7.3773084369,"geoidElevation":false},"plan":{"date":1700648340000,"from":{"lat":1.3514635239,"lon":103.8353445998,"name":"Origin","orig":"","vertexType":"NORMAL"},"itineraries":[{"duration":1637,"elevationGained":0,"elevationLost":0,"endTime":1700650066000,"fare":"1.52","legs":[{"agencyTimeZoneOffset":28800000,"arrivalDelay":0,"departureDelay":0,"distance":86.687,"duration":94,"endTime":1700648523000,"from":{"departure":1700648429000,"lat":1.3514635239,"lon":103.8353445998,"name":"Origin","orig":"","vertexType":"NORMAL"},"interlineWithPreviousLeg":false,"intermediateStops":[],"legGeometry":{"length":39,"points":"g}fG_jwxRAKA??????A????A??????A?????????????AAA???A?A???AAA???AAA??AA??E@?CSy@CGTGL???"},"mode":"WALK","numIntermediateStops":1,"pathway":false,"realTime":false,"rentedBike":false,"route":"","startTime":1700648429000,"steps":[{"absoluteDirection":"EAST","area":false,"bogusName":false,"distance":86.687,"elevation":[],"lat":1.3514006089,"lon":103.8353647701,"relativeDirection":"DEPART","stayOn":false,"streetName":"path"}],"to":{"arrival":1700648523000,"departure":1700648524000,"lat":1.3514468174,"lon":103.835910706,"name":"THOMSON CC","stopCode":"53039","stopId":"FERRY:53039","stopIndex":36,"stopSequence":37,"vertexType":"TRANSIT"},"transitLeg":false},{"agencyId":"TTS","agencyName":"Tower Transit Services","agencyTimeZoneOffset":28800000,"agencyUrl":"http:\/\/towertransit.sg\/","arrivalDelay":0,"departureDelay":0,"distance":3746.6760248813,"duration":904,"endTime":1700649428000,"from":{"arrival":1700648523000,"departure":1700648524000,"lat":1.3514468174,"lon":103.835910706,"name":"THOMSON CC","stopCode":"53039","stopId":"FERRY:53039","stopIndex":36,"stopSequence":37,"vertexType":"TRANSIT"},"interlineWithPreviousLeg":false,"intermediateStops":[{"arrival":1700648567000,"departure":1700648597000,"lat":1.3493924085,"lon":103.837292226,"name":"SHUNFU EST","stopCode":"53029","stopId":"FERRY:53029","stopIndex":37,"stopSequence":38,"vertexType":"TRANSIT"},{"arrival":1700648654000,"departure":1700648684000,"lat":1.3460034963,"lon":103.838717795,"name":"OPP ST. THERESA'S HME","stopCode":"53019","stopId":"FERRY:53019","stopIndex":38,"stopSequence":39,"vertexType":"TRANSIT"},{"arrival":1700648785000,"departure":1700648815000,"lat":1.3412578527,"lon":103.836604356,"name":"MT ALVERNIA HOSP","stopCode":"51069","stopId":"FERRY:51069","stopIndex":39,"stopSequence":40,"vertexType":"TRANSIT"},{"arrival":1700648887000,"departure":1700648917000,"lat":1.3370325834,"lon":103.837350194,"name":"AFT TOA PAYOH RISE","stopCode":"51059","stopId":"FERRY:51059","stopIndex":40,"stopSequence":41,"vertexType":"TRANSIT"},{"arrival":1700648975000,"departure":1700649005000,"lat":1.333821315,"lon":103.837958113,"name":"SLF CPLX","stopCode":"51049","stopId":"FERRY:51049","stopIndex":41,"stopSequence":42,"vertexType":"TRANSIT"},{"arrival":1700649048000,"departure":1700649078000,"lat":1.3316582874,"lon":103.838888661,"name":"OPP S'PORE POLO CLUB","stopCode":"51039","stopId":"FERRY:51039","stopIndex":42,"stopSequence":43,"vertexType":"TRANSIT"},{"arrival":1700649107000,"departure":1700649137000,"lat":1.3302549684,"lon":103.839713398,"name":"OPP OLD POLICE ACAD","stopCode":"51029","stopId":"FERRY:51029","stopIndex":43,"stopSequence":44,"vertexType":"TRANSIT"},{"arrival":1700649166000,"departure":1700649196000,"lat":1.3289424897,"lon":103.840665085,"name":"THOMSON FLYOVER","stopCode":"51019","stopId":"FERRY:51019","stopIndex":44,"stopSequence":45,"vertexType":"TRANSIT"},{"arrival":1700649268000,"departure":1700649298000,"lat":1.3248564626,"lon":103.84204606,"name":"OPP THOMSON MED CTR","stopCode":"50059","stopId":"FERRY:50059","stopIndex":45,"stopSequence":46,"vertexType":"TRANSIT"},{"arrival":1700649326000,"departure":1700649356000,"lat":1.3234601848,"lon":103.841881372,"name":"OPP NOVENA LODGE","stopCode":"50049","stopId":"FERRY:50049","stopIndex":46,"stopSequence":47,"vertexType":"TRANSIT"}],"legGeometry":{"length":116,"points":"i}fG{lwxR??rCw@`@MnA}@bB}Ax@q@??BCtBoAfAk@tC}A`A]tAYdBK~@I??l@ChJVtAFTD`@Ph@b@p@zArBnEZX\\Nv@Nr@DXA??^?|As@tAm@xAs@rBcAh@V~@P`AHLB`@@`@?lBE|@B??@?zBTzCVp@Dr@?fBa@n@[tBeBBA??j@[fCs@tBo@nBk@RG??|Ae@\\K`@KdAk@|@_A@C??j@o@f@k@j@_@d@S^Qr@Y??~@a@nBy@~B}@NIFA~@a@|Aq@JEHAd@Kd@Kl@E~@CdABf@B|@FJ@bAJhBNL@??N@D?L@t@FD@^BtAHj@?J?XAtA_@b@Md@QHC@ADC|@g@f@_@h@c@lA}@"},"mode":"BUS","numIntermediateStops":11,"pathway":false,"realTime":false,"rentedBike":false,"route":"980","routeId":"980","routeLongName":"TTS BUS 980","routeShortName":"980","routeType":3,"serviceDate":"20231122","startTime":1700648524000,"steps":[],"to":{"arrival":1700649428000,"departure":1700649428000,"lat":1.320173986,"lon":103.842986528,"name":"NOVENA STN","stopCode":"50038","stopId":"FERRY:50038","stopIndex":47,"stopSequence":48,"vertexType":"TRANSIT"},"transitLeg":true,"tripId":"980-1-3003"},{"agencyTimeZoneOffset":28800000,"arrivalDelay":0,"departureDelay":0,"distance":100.2862081773,"duration":10,"endTime":1700649438000,"from":{"arrival":1700649428000,"departure":1700649428000,"lat":1.320173986,"lon":103.842986528,"name":"NOVENA STN","stopCode":"50038","stopId":"FERRY:50038","stopIndex":47,"stopSequence":48,"vertexType":"TRANSIT"},"interlineWithPreviousLeg":false,"intermediateStops":[],"legGeometry":{"length":2,"points":"az`GsyxxRw@kD"},"mode":"WALK","numIntermediateStops":1,"pathway":false,"realTime":false,"rentedBike":false,"route":"","startTime":1700649428000,"steps":[{"absoluteDirection":"EAST","area":false,"bogusName":false,"distance":100.2862081773,"elevation":[],"lat":1.320173986,"lon":103.842986528,"relativeDirection":"DEPART","stayOn":false,"streetName":"Transfer"}],"to":{"arrival":1700649438000,"departure":1700649468000,"lat":1.3204583552,"lon":103.843842645,"name":"NOVENA MRT STATION","stopCode":"NS20","stopId":"FERRY:NS20","stopIndex":18,"stopSequence":20,"vertexType":"TRANSIT"},"transitLeg":false},{"agencyId":"SMRT","agencyName":"SMRT Corporation","agencyTimeZoneOffset":28800000,"agencyUrl":"http:\/\/www.smrt.com.sg\/","arrivalDelay":0,"departureDelay":0,"distance":4875.4075987046,"duration":532,"endTime":1700650000000,"from":{"arrival":1700649438000,"departure":1700649468000,"lat":1.3204583552,"lon":103.843842645,"name":"NOVENA MRT STATION","stopCode":"NS20","stopId":"FERRY:NS20","stopIndex":18,"stopSequence":20,"vertexType":"TRANSIT"},"interlineWithPreviousLeg":false,"intermediateStops":[{"arrival":1700649561000,"departure":1700649591000,"lat":1.3125291106,"lon":103.838036234,"name":"NEWTON MRT STATION","stopCode":"NS21","stopId":"FERRY:NS21","stopIndex":19,"stopSequence":21,"vertexType":"TRANSIT"},{"arrival":1700649685000,"departure":1700649715000,"lat":1.3038150312,"lon":103.832272194,"name":"ORCHARD MRT STATION","stopCode":"NS22","stopId":"FERRY:NS22","stopIndex":20,"stopSequence":22,"vertexType":"TRANSIT"},{"arrival":1700649796000,"departure":1700649826000,"lat":1.300213166,"lon":103.839221465,"name":"SOMERSET MRT STATION","stopCode":"NS23","stopId":"FERRY:NS23","stopIndex":21,"stopSequence":23,"vertexType":"TRANSIT"},{"arrival":1700649890000,"departure":1700649920000,"lat":1.2986887229,"lon":103.846122838,"name":"DHOBY GHAUT MRT STATION","stopCode":"NS24","stopId":"FERRY:NS24","stopIndex":22,"stopSequence":24,"vertexType":"TRANSIT"}],"legGeometry":{"length":133,"points":"q{`Gi_yxRbHfGf@`@ZVZTLJLHNHLHNHNFNH`A^lAXpAPbCXdAP~@Vl@PdAb@hAl@lAz@v@p@t@t@x@`Az@jAt@nAfAjBXd@~IpO\\l@TZHLJLJLJLJJJLLJJJLLLHLJLJLHLJLHNHNHLHNFNHNFNF^N`@LzMxENFPDNDPDNDPBPBPBP@P@P@P@X?ZAb@AtBGPAjDMd@GXEd@KZI^O`@Qd@W^W\\YVYX]PWPYN[N_@HUHYF[Fa@Fe@Be@?k@Ag@Cm@UqBGi@Eo@Ae@@g@Bi@De@He@\\qBTqA`@wC@K~@wG\\gCh@mFv@mHRmBHs@Lq@bAsE@AfBuHb@wAf@iAf@_Av@mA|@eAfAcAt@k@nBkAnEiCzDyBFElEgC"},"mode":"SUBWAY","numIntermediateStops":5,"pathway":false,"realTime":false,"rentedBike":false,"route":"NS","routeId":"NS","routeLongName":"NORTH SOUTH LINE","routeShortName":"NS","routeType":1,"serviceDate":"20231122","startTime":1700649468000,"steps":[],"to":{"arrival":1700650000000,"departure":1700650001000,"lat":1.2929048315,"lon":103.852596374,"name":"CITY HALL MRT STATION","stopCode":"NS25","stopId":"FERRY:NS25","stopIndex":23,"stopSequence":25,"vertexType":"TRANSIT"},"transitLeg":true,"tripId":"NS-2-4004"},{"agencyTimeZoneOffset":28800000,"arrivalDelay":0,"departureDelay":0,"distance":86.153,"duration":65,"endTime":1700650066000,"from":{"arrival":1700650000000,"departure":1700650001000,"lat":1.2929048315,"lon":103.852596374,"name":"CITY HALL MRT STATION","stopCode":"NS25","stopId":"FERRY:NS25","stopIndex":23,"stopSequence":25,"vertexType":"TRANSIT"},"interlineWithPreviousLeg":false,"intermediateStops":[],"legGeometry":{"length":4,"points":"so{FuuzxRg@\\Zj@Yl@"},"mode":"WALK","numIntermediateStops":1,"pathway":false,"realTime":false,"rentedBike":false,"route":"","startTime":1700650001000,"steps":[{"absoluteDirection":"NORTHWEST","area":false,"bogusName":false,"distance":86.153,"elevation":[],"lat":1.2929049982,"lon":103.8525965871,"relativeDirection":"DEPART","stayOn":false,"streetName":"path"}],"to":{"arrival":1700650066000,"lat":1.2931,"lon":103.852,"name":"Destination","orig":"","vertexType":"NORMAL"},"transitLeg":false}],"startTime":1700648429000,"tooSloped":false,"transfers":1,"transitTime":1436,"waitingTime":32,"walkDistance":173.0133082651,"walkLimitExceeded":false,"walkTime":169},{"duration":1798,"elevationGained":0,"elevationLost":0,"endTime":1700650261000,"fare":"1.52","legs":[{"agencyTimeZoneOffset":28800000,"arrivalDelay":0,"departureDelay":0,"distance":728.119,"duration":621,"endTime":1700649084000,"from":{"departure":1700648463000,"lat":1.3514635239,"lon":103.8353445998,"name":"Origin","orig":"","vertexType":"NORMAL"},"interlineWithPreviousLeg":false,"intermediateStops":[],"legGeometry":{"length":183,"points":"g}fG_jwxRAKA??????A????A??????A?????????????AAA???A?A???AAA???AAA??AA??NE@ALCPEt@Q@AB?@A@?@A@?B??A@?????@??A@???@?@A??@?@??AB?BABABABA@AB?@A@?@A@?@A@?@A??@?@A??@??A@?@???@A??@???@???@???@?@??@@???@??@@????@@??@??@??@??HEBAHE@?AC?A?A?A?C?A?A@A?A@C?APMNMPKNMPMPMNKTQm@o@PQFIFIHIHIHIHIHGJILIJILGLILGLENIRQJGBEBE?A@C?C?S@S?IAI?CEO?ECI?EAMAO?KAEAC?E@O?E@E?MAECSCIACAAEGC@IAE?GADcA~@K"},"mode":"WALK","numIntermediateStops":1,"pathway":false,"realTime":false,"rentedBike":false,"route":"","startTime":1700648463000,"steps":[{"absoluteDirection":"EAST","area":false,"bogusName":false,"distance":728.119,"elevation":[],"lat":1.3514006089,"lon":103.8353647701,"relativeDirection":"DEPART","stayOn":false,"streetName":"path"}],"to":{"arrival":1700649084000,"departure":1700649085000,"lat":1.3485936158,"lon":103.839567616,"name":"MARYMOUNT MRT STATION","stopCode":"CC16","stopId":"FERRY:CC16","stopIndex":12,"stopSequence":14,"vertexType":"TRANSIT"},"transitLeg":false},{"agencyId":"SMRT","agencyName":"SMRT Corporation","agencyTimeZoneOffset":28800000,"agencyUrl":"http:\/\/www.smrt.com.sg\/","arrivalDelay":0,"departureDelay":0,"distance":1139.8409939932,"duration":124,"endTime":1700649209000,"from":{"arrival":1700649084000,"departure":1700649085000,"lat":1.3485936158,"lon":103.839567616,"name":"MARYMOUNT MRT STATION","stopCode":"CC16","stopId":"FERRY:CC16","stopIndex":12,"stopSequence":14,"vertexType":"TRANSIT"},"interlineWithPreviousLeg":false,"intermediateStops":[],"legGeometry":{"length":32,"points":"{kfGybxxRo@EgLy@kCW_AWe@Qu@]u@k@o@m@W]Ya@a@y@Ss@SgAIm@Cw@@s@F}@RgA^gAd@aAh@s@~@oAp@gA^iAP{@LeALsCReB`@aC\\aCh@{D"},"mode":"SUBWAY","numIntermediateStops":1,"pathway":false,"realTime":false,"rentedBike":false,"route":"CC","routeId":"CC","routeLongName":"CIRCLE LINE","routeShortName":"CC","routeType":1,"serviceDate":"20231122","startTime":1700649085000,"steps":[],"to":{"arrival":1700649209000,"departure":1700649209000,"lat":1.3513035643,"lon":103.849456487,"name":"BISHAN MRT STATION","stopCode":"CC15","stopId":"FERRY:CC15","stopIndex":13,"stopSequence":15,"vertexType":"TRANSIT"},"transitLeg":true,"tripId":"CC-2-4011"},{"agencyTimeZoneOffset":28800000,"arrivalDelay":0,"departureDelay":0,"distance":151.4687041944,"duration":20,"endTime":1700649229000,"from":{"arrival":1700649209000,"departure":1700649209000,"lat":1.3513035643,"lon":103.849456487,"name":"BISHAN MRT STATION","stopCode":"CC15","stopId":"FERRY:CC15","stopIndex":13,"stopSequence":15,"vertexType":"TRANSIT"},