[{"index":0,"Itinerary":[[1.2931,103.852],"Cineleisure","Knockhouse Cafe'"],"POICategories":[["NA","NA","NA"],["nonfood","Entertainment","Cinema"],["food","NA","NA"]],"VehicleMode":"Public Transport","Coords":[[1.2931,103.852],[1.3015210187,103.836429655],[1.3514635239,103.8353445998]],"StartTimePOI":[["Fri, 22 Sep 2023 10:00:00 GMT"],["Fri, 22 Sep 2023 11:22:31 GMT"]],"ReachTimePOI":[["Fri, 22 Sep 2023 10:22:31 GMT"],["Fri, 22 Sep 2023 12:56:57 GMT"]],"LeaveTimePOI":[["Fri, 22 Sep 2023 11:22:31 GMT"],["Fri, 22 Sep 2023 13:56:57 GMT"]],"TotalTime":"3h 56min","Total distance(km)":3.6966436315,"Routes":[{"debugOutput":{"pathCalculationTime":23,"pathTimes":[7,9,7],"precalculationTime":44,"renderingTime":1,"timedOut":false,"totalTime":68},"elevationMetadata":{"ellipsoidToGeoidDifference":7.3773084369,"geoidElevation":false},"plan":{"date":1700648280000,"from":{"lat":1.2931,"lon":103.852,"name":"Origin","orig":"","vertexType":"NORMAL"},"itineraries":[{"duration":521,"elevationGained":0,"elevationLost":0,"endTime":1700648966000,"fare":"0.99","legs":[{"agencyTimeZoneOffset":28800000,"arrivalDelay":0,"departureDelay":0,"distance":86.153,"duration":65,"endTime":1700648510000,"from":{"departure":1700648445000,"lat":1.2931,"lon":103.852,"name":"Origin","orig":"","vertexType":"NORMAL"},"interlineWithPreviousLeg":false,"intermediateStops":[],"legGeometry":{"length":4,"points":"yp{F}qzxRXm@[k@f@]"},"mode":"WALK","numIntermediateStops":1,"pathway":false,"realTime":false,"rentedBike":false,"route":"","startTime":1700648445000,"steps":[{"absoluteDirection":"SOUTHEAST","area":false,"bogusName":false,"distance":86.153,"elevation":[],"lat":1.2930931031,"lon":103.8519960097,"relativeDirection":"DEPART","stayOn":false,"streetName":"path"}],"to":{"arrival":1700648510000,"departure":1700648511000,"lat":1.2929048315,"lon":103.852596374,"name":"CITY HALL MRT STATION","stopCode":"NS25","stopId":"FERRY:NS25","stopIndex":3,"stopSequence":4,"vertexType":"TRANSIT"},"transitLeg":false},{"agencyId":"SMRT","agencyName":"SMRT Corporation","agencyTimeZoneOffset":28800000,"agencyUrl":"http:\/\/www.smrt.com.sg\/","arrivalDelay":0,"departureDelay":0,"distance":1750.8541633212,"duration":173,"endTime":1700648684000,"from":{"arrival":1700648510000,"departure":1700648511000,"lat":1.2929048315,"lon":103.852596374,"name":"CITY HALL MRT STATION","stopCode":"NS25","stopId":"FERRY:NS25","stopIndex":3,"stopSequence":4,"vertexType":"TRANSIT"},"interlineWithPreviousLeg":false,"intermediateStops":[{"arrival":1700648590000,"departure":1700648620000,"lat":1.2986887229,"lon":103.846122838,"name":"DHOBY GHAUT MRT STATION","stopCode":"NS24","stopId":"FERRY:NS24","stopIndex":4,"stopSequence":5,"vertexType":"TRANSIT"}],"legGeometry":{"length":22,"points":"io{FguzxR??eE`COJo@`@sBvAiIrFaBrAuAbBaAvAgAzBe@zA{A|G?@iA|EIh@SrAIh@Gn@{@pIm@xFmA~I"},"mode":"SUBWAY","numIntermediateStops":2,"pathway":false,"realTime":false,"rentedBike":false,"route":"NS","routeId":"NS","routeLongName":"NORTH SOUTH LINE","routeShortName":"NS","routeType":1,"serviceDate":"20231122","startTime":1700648511000,"steps":[],"to":{"arrival":1700648684000,"departure":1700648684000,"lat":1.300213166,"lon":103.839221465,"name":"SOMERSET MRT STATION","stopCode":"NS23","stopId":"FERRY:NS23","stopIndex":5,"stopSequence":6,"vertexType":"TRANSIT"},"transitLeg":true,"tripId":"NS-1-4015"},{"agencyTimeZoneOffset":28800000,"arrivalDelay":0,"departureDelay":0,"distance":166.8862856634,"duration":10,"endTime":1700648694000,"from":{"arrival":1700648684000,"departure":1700648684000,"lat":1.300213166,"lon":103.839221465,"name":"SOMERSET MRT STATION","stopCode":"NS23","stopId":"FERRY:NS23","stopIndex":5,"stopSequence":6,"vertexType":"TRANSIT"},"interlineWithPreviousLeg":false,"intermediateStops":[],"legGeometry":{"length":2,"points":"i}|FcbxxRiGjC"},"mode":"WALK","numIntermediateStops":1,"pathway":false,"realTime":false,"rentedBike":false,"route":"","startTime":1700648684000,"steps":[{"absoluteDirection":"NORTHWEST","area":false,"bogusName":false,"distance":166.8862856634,"elevation":[],"lat":1.300213166,"lon":103.839221465,"relativeDirection":"DEPART","stayOn":false,"streetName":"Transfer"}],"to":{"arrival":1700648694000,"departure":1700648695000,"lat":1.3015426245,"lon":103.838524818,"name":"OPP SOMERSET STN","vertexType":"NORMAL"},"transitLeg":false},{"agencyTimeZoneOffset":28800000,"arrivalDelay":0,"departureDelay":0,"distance":305.472,"duration":271,"endTime":1700648966000,"from":{"arrival":1700648694000,"departure":1700648695000,"lat":1.301542625,"lon":103.838524819,"name":"path","vertexType":"NORMAL"},"interlineWithPreviousLeg":false,"intermediateStops":[],"legGeometry":{"length":24,"points":"se}Fw}wxRGCCJGNSf@IXK\\KVGJIRCDKT?DCBFDXNF@v@p@HHB@JHj@f@Wl@UR"},"mode":"WALK","numIntermediateStops":1,"pathway":false,"realTime":false,"rentedBike":false,"route":"","startTime":1700648695000,"steps":[{"absoluteDirection":"NORTHEAST","area":false,"bogusName":true,"distance":305.472,"elevation":[],"lat":1.301542625,"lon":103.838524819,"relativeDirection":"RIGHT","stayOn":false,"streetName":"path"}],"to":{"arrival":1700648966000,"lat":1.3015210187,"lon":103.836429655,"name":"Destination","orig":"","vertexType":"NORMAL"},"transitLeg":false}],"startTime":1700648445000,"tooSloped":false,"transfers":0,"transitTime":173,"waitingTime":2,"walkDistance":391.7659774391,"walkLimitExceeded":false,"walkTime":346},{"duration":830,"elevationGained":0,"elevationLost":0,"endTime":1700649139000,"fare":"0.99","legs":[{"agencyTimeZoneOffset":28800000,"arrivalDelay":0,"departureDelay":0,"distance":237.462,"duration":199,"endTime":1700648508000,"from":{"departure":1700648309000,"lat":1.2931,"lon":103.852,"name":"Origin","orig":"","vertexType":"NORMAL"},"interlineWithPreviousLeg":false,"intermediateStops":[],"legGeometry":{"length":16,"points":"yp{F}qzxR??DN?@v@^EF?Fg@YkAo@GICBQ\\CFMJs@nAEF"},"mode":"WALK","numIntermediateStops":1,"pathway":false,"realTime":false,"rentedBike":false,"route":"","startTime":1700648309000,"steps":[{"absoluteDirection":"WEST","area":false,"bogusName":false,"distance":237.462,"elevation":[],"lat":1.2930931031,"lon":103.8519960097,"relativeDirection":"DEPART","stayOn":false,"streetName":"path"}],"to":{"arrival":1700648508000,"departure":1700648509000,"lat":1.2939544417,"lon":103.851390966,"name":"CAPITOL BLDG","stopCode":"04111","stopId":"FERRY:04111","stopIndex":4,"stopSequence":5,"vertexType":"TRANSIT"},"transitLeg":false},{"agencyId":"TTS","agencyName":"Tower Transit Services","agencyTimeZoneOffset":28800000,"agencyUrl":"http:\/\/towertransit.sg\/","arrivalDelay":0,"departureDelay":0,"distance":1932.4859008082,"duration":453,"endTime":1700648962000,"from":{"arrival":1700648508000,"departure":1700648509000,"lat":1.2939544417,"lon":103.851390966,"name":"CAPITOL BLDG","stopCode":"04111","stopId":"FERRY:04111","stopIndex":4,"stopSequence":5,"vertexType":"TRANSIT"},"interlineWithPreviousLeg":false,"intermediateStops":[{"arrival":1700648567000,"departure":1700648597000,"lat":1.2961854409,"lon":103.8495803,"name":"SMU","stopCode":"04121","stopId":"FERRY:04121","stopIndex":5,"stopSequence":6,"vertexType":"TRANSIT"},{"arrival":1700648640000,"departure":1700648670000,"lat":1.2981101424,"lon":103.847806369,"name":"YMCA","stopCode":"08041","stopId":"FERRY:08041","stopIndex":6,"stopSequence":7,"vertexType":"TRANSIT"},{"arrival":1700648713000,"departure":1700648743000,"lat":1.2983115378,"lon":103.84525696,"name":"DHOBY GHAUT STN EXIT B","stopCode":"08031","stopId":"FERRY:08031","stopIndex":7,"stopSequence":8,"vertexType":"TRANSIT"},{"arrival":1700648815000,"departure":1700648845000,"lat":1.2998692872,"lon":103.840937461,"name":"WINSLAND HSE","stopCode":"08111","stopId":"FERRY:08111","stopIndex":8,"stopSequence":9,"vertexType":"TRANSIT"},{"arrival":1700648888000,"departure":1700648918000,"lat":1.3002756933,"lon":103.838776185,"name":"SOMERSET STN","stopCode":"08121","stopId":"FERRY:08121","stopIndex":9,"stopSequence":10,"vertexType":"TRANSIT"}],"legGeometry":{"length":59,"points":"iv{FgnzxR??KP{AnC}@dB[|@_CkAS?O@KDUR[b@_@b@A@??UR[R]P{@f@{@l@oB`CgArA??CDQZGVB\\BVDJ`@b@\\d@FRBNAf@M`Aw@vDm@vCc@dBe@v@sA|B[h@Wr@Up@UdBGd@]hC??QpAIv@YxBc@hD??w@fGIb@O|@Kj@Mn@lAfA??"},"mode":"BUS","numIntermediateStops":6,"pathway":false,"realTime":false,"rentedBike":false,"route":"77 \/ 36 \/ 175","routeId":"77","routeLongName":"TTS BUS 77","routeShortName":"77","routeType":3,"serviceDate":"20231122","startTime":1700648509000,"steps":[],"to":{"arrival":1700648962000,"departure":1700648963000,"lat":1.3004425176,"lon":103.836238042,"name":"SOMERSET YOUTH PK","stopCode":"09059","stopId":"FERRY:09059","stopIndex":10,"stopSequence":11,"vertexType":"TRANSIT"},"transitLeg":true,"tripId":"77-2-3007"},{"agencyTimeZoneOffset":28800000,"arrivalDelay":0,"departureDelay":0,"distance":183.336,"duration":176,"endTime":1700649139000,"from":{"arrival":1700648962000,"departure":1700648963000,"lat":1.3004425176,"lon":103.836238042,"name":"SOMERSET YOUTH PK","stopCode":"09059","stopId":"FERRY:09059","stopIndex":10,"stopSequence":11,"vertexType":"TRANSIT"},"interlineWithPreviousLeg":false,"intermediateStops":[],"legGeometry":{"length":22,"points":"w~|FmowxR@AMMCBQSSWCIC@E@EAOMC?C?MPA@UQCBCCAQQMWl@UR"},"mode":"WALK","numIntermediateStops":1,"pathway":false,"realTime":false,"rentedBike":false,"route":"","startTime":1700648963000,"steps":[{"absoluteDirection":"SOUTHEAST","area":false,"bogusName":true,"distance":183.336,"elevation":[],"lat":1.300442517,"lon":103.836238042,"relativeDirection":"DEPART","stayOn":false,"streetName":"path"}],"to":{"arrival":1700649139000,"lat":1.3015210187,"lon":103.836429655,"name":"Destination","orig":"","vertexType":"NORMAL"},"transitLeg":false}],"startTime":1700648309000,"tooSloped":false,"transfers":0,"transitTime":453,"waitingTime":2,"walkDistance":421.1713082586,"walkLimitExceeded":false,"walkTime":375}],"to":{"lat":1.3015210187,"lon":103.836429655,"name":"Destination","orig":"","vertexType":"NORMAL"}},"requestParameters":{"arriveBy":"false","date":"11-22-2023","fromPlace":"1.2931,103.852","maxTransfers":"3","maxWalkDistance":"787.1783191477463","mode":"TRANSIT,WALK","numItineraries":"3","otherThanPreferredRoutesPenalty":"0","preferredRoutes":"1__CC,1__DT,1__EW,1__NE,1__NS,1__PE,1__PW,1__SE,1__SS,1__SW,1__CG,1__BP","showIntermediateStops":"true","time":"6:18pm","toPlace":"1.30152101873533,103.836429655016","transferPenalty":"2500","waitAtBeginningFactor":"0.5","walkReluctance":"8"}},{"debugOutput":{"pathCalculationTime":62,"pathTimes":[45,9,8],"precalculationTime":58,"renderingTime":1,"timedOut":false,"totalTime":121},"elevationMetadata":{"ellipsoidToGeoidDifference":7.3773084369,"geoidElevation":false},"plan":{"date":1700648280000,"from":{"lat":1.3015210187,"lon":103.836429655,"name":"Origin","orig":"","vertexType":"NORMAL"},"itineraries":[{"duration":1843,"elevationGained":0,"elevationLost":0,"endTime":1700650275000,"fare":"1.45","legs":[{"agencyTimeZoneOffset":28800000,"arrivalDelay":0,"departureDelay":0,"distance":305.472,"duration":271,"endTime":1700648703000,"from":{"departure":1700648432000,"lat":1.3015210187,"lon":103.836429655,"name":"Origin","orig":"","vertexType":"NORMAL"},"interlineWithPreviousLeg":false,"intermediateStops":[],"legGeometry":{"length":24,"points":"ie}FwpwxRTSVm@k@g@KICAIIw@q@GAYOGEBC?EJUBEHSFKJWJ]HYRg@FOBKFB"},"mode":"WALK","numIntermediateStops":1,"pathway":false,"realTime":false,"rentedBike":false,"route":"","startTime":1700648432000,"steps":[{"absoluteDirection":"SOUTHEAST","area":false,"bogusName":true,"distance":305.472,"elevation":[],"lat":1.301495459,"lon":103.836443586,"relativeDirection":"DEPART","stayOn":false,"streetName":"path"}],"to":{"arrival":1700648703000,"departure":1700648704000,"lat":1.301542625,"lon":103.838524819,"name":"path","vertexType":"NORMAL"},"transitLeg":false},{"agencyTimeZoneOffset":28800000,"arrivalDelay":0,"departureDelay":0,"distance":166.8862856634,"duration":10,"endTime":1700648714000,"from":{"arrival":1700648703000,"departure":1700648704000,"lat":1.3015426245,"lon":103.838524818,"name":"OPP SOMERSET STN","vertexType":"NORMAL"},"interlineWithPreviousLeg":false,"intermediateStops":[],"legGeometry":{"length":2,"points":"se}Fw}wxRhGkC"},"mode":"WALK","numIntermediateStops":1,"pathway":false,"realTime":false,"rentedBike":false,"route":"","startTime":1700648704000,"steps":[{"absoluteDirection":"SOUTHEAST","area":false,"bogusName":false,"distance":166.8862856634,"elevation":[],"lat":1.3015426245,"lon":103.838524818,"relativeDirection":"CONTINUE","stayOn":false,"streetName":"Transfer"}],"to":{"arrival":1700648714000,"departure":1700648714000,"lat":1.300213166,"lon":103.839221465,"name":"SOMERSET MRT STATION","stopCode":"NS23","stopId":"FERRY:NS23","stopIndex":5,"stopSequence":6,"vertexType":"TRANSIT"},"transitLeg":false},{"agencyId":"SMRT","agencyName":"SMRT Corporation","agencyTimeZoneOffset":28800000,"agencyUrl":"http:\/\/www.smrt.com.sg\/","arrivalDelay":0,"departureDelay":0,"distance":6580.6130988464,"duration":704,"endTime":1700649418000,"from":{"arrival":1700648714000,"departure":1700648714000,"lat":1.300213166,"lon":103.839221465,"name":"SOMERSET MRT STATION","stopCode":"NS23","stopId":"FERRY:NS23","stopIndex":5,"stopSequence":6,"vertexType":"TRANSIT"},"interlineWithPreviousLeg":false,"intermediateStops":[{"arrival":1700648796000,"departure":1700648826000,"lat":1.3038150312,"lon":103.832272194,"name":"ORCHARD MRT STATION","stopCode":"NS22","stopId":"FERRY:NS22","stopIndex":6,"stopSequence":7,"vertexType":"TRANSIT"},{"arrival":1700648923000,"departure":1700648953000,"lat":1.3125291106,"lon":103.838036234,"name":"NEWTON MRT STATION","stopCode":"NS21","stopId":"FERRY:NS21","stopIndex":7,"stopSequence":8,"vertexType":"TRANSIT"},{"arrival":1700649045000,"departure":1700649075000,"lat":1.3204583552,"lon":103.843842645,"name":"NOVENA MRT STATION","stopCode":"NS20","stopId":"FERRY:NS20","stopIndex":8,"stopSequence":9,"vertexType":"TRANSIT"},{"arrival":1700649192000,"departure":1700649222000,"lat":1.3324628752,"lon":103.84758934,"name":"TOA PAYOH MRT STATION","stopCode":"NS19","stopId":"FERRY:NS19","stopIndex":9,"stopSequence":10,"vertexType":"TRANSIT"},{"arrival":1700649293000,"departure":1700649323000,"lat":1.340158424,"lon":103.846746851,"name":"BRADDELL MRT STATION","stopCode":"NS18","stopId":"FERRY:NS18","stopIndex":10,"stopSequence":11,"vertexType":"TRANSIT"}],"legGeometry":{"length":212,"points":"c}|FabxxRAJc@|CWvAYzAIn@Ir@Al@?j@Dr@^jDFt@@n@An@Ch@Gf@Mn@Ql@Sd@OZWb@W\\[\\YV_@X[R]Pa@Nw@Vs@N}@Hm@BiCJQ?sCJQ?Q?Q?Q?QAQAQAQCQCOCQCQEOEQE_@O}MwEo@W_@OOGOGOIOGOIMIOIMIMKMIMKMKMKKKMKKMMKKMKMIKKMIOU[]k@_JqOYe@eCiEy@iAaAgAw@u@w@q@_Am@}@g@_Bm@aAWeAS}ASaCYo@Mw@U{@[OGMGOIOIMIMIOKMIYW[W[W}GaGCCgFoEk@e@WSMK[U]U]SMI]SOIOG]Q_@QOGOGa@OOG_@Ma@Ma@KOEc@KOEc@Ia@Ic@Ga@GWC]EuEa@u@Gc@GOCi@I[Gc@Ga@Ka@Is@QiD}@a@Ka@Ic@IUE]EQCQAQAQAQAQAQ?Q?Q@Q?Q@Q@Q@Q@Q@QBc@DmEl@c@FcDb@{ATk@Jm@N}@Vo@VeAd@cBp@y@T}@PcAJ_ABcAAs@Eu@Ke@Is@Q_A[m@Qm@Ku@IwCKc@AgDIc@AY?mD?u@?u@@iFHu@@c@?e@Ac@AQAc@COCc@Ec@EeRgCuL_B"},"mode":"SUBWAY","numIntermediateStops":6,"pathway":false,"realTime":false,"rentedBike":false,"route":"NS","routeId":"NS","routeLongName":"NORTH SOUTH LINE","routeShortName":"NS","routeType":1,"serviceDate":"20231122","startTime":1700648714000,"steps":[],"to":{"arrival":1700649418000,"departure":1700649418000,"lat":1.3508268528,"lon":103.848180082,"name":"BISHAN MRT STATION","stopCode":"NS17","stopId":"FERRY:NS17","stopIndex":11,"stopSequence":12,"vertexType":"TRANSIT"},"transitLeg":true,"tripId":"NS-1-4015"},{"agencyTimeZoneOffset":28800000,"arrivalDelay":0,"departureDelay":0,"distance":151.4687041944,"duration":20,"endTime":1700649438000,"from":{"arrival":1700649418000,"departure":1700649418000,"lat":1.3508268528,"lon":103.848180082,"name":"BISHAN MRT STATION","stopCode":"NS17","stopId":"FERRY:NS17","stopIndex":11,"stopSequence":12,"vertexType":"TRANSIT"},"interlineWithPreviousLeg":false,"intermediateStops":[],"legGeometry":{"length":2,"points":"syfGczyxR_B}F"},"mode":"WALK","numIntermediateStops":1,"pathway":false,"realTime":false,"rentedBike":false,"route":"","startTime":1700649418000,"steps":[{"absoluteDirection":"EAST","area":false,"bogusName":false,"distance":151.4687041944,"elevation":[],"lat":1.3508268528,"lon":103.848180082,"relativeDirection":"DEPART","stayOn":false,"streetName":"Transfer"}],"to":{"arrival":1700649438000,"departure":1700649538000,"lat":1.3513035643,"lon":103.849456487,"name":"BISHAN MRT STATION","stopCode":"CC15","stopId":"FERRY:CC15","stopIndex":14,"stopSequence":15,"vertexType":"TRANSIT"},"transitLeg":false},{"agencyId":"SMRT","agencyName":"SMRT Corporation","agencyTimeZoneOffset":28800000,"agencyUrl":"http:\/\/www.smrt.com.sg\/","arrivalDelay":0,"departureDelay":0,"distance":1139.8409939932,"duration":116,"endTime":1700649654000,"from":{"arrival":1700649438000,"departure":1700649538000,"lat":1.3513035643,"lon":103.849456487,"name":"BISHAN MRT STATION","stopCode":"CC15","stopId":"FERRY:CC15","stopIndex":14,"stopSequence":15,"vertexType":"TRANSIT"},"interlineWithPreviousLeg":false,"intermediateStops":[],"legGeometry":{"length":30,"points":"}{fG}azxRAD_@fC[vBk@lCUjAI|@S`EUfBi@jB{@zBk@dBSr@Ov@Ix@AbAFbAJ|@Rz@Vp@^t@v@bAt@p@t@b@|An@lATtALrEVpBPn@D"},"mode":"SUBWAY","numIntermediateStops":1,"pathway":false,"realTime":false,"rentedBike":false,"route":"CC","routeId":"CC","routeLongName":"CIRCLE LINE","routeShortName":"CC","routeType":1,"serviceDate":"20231122","startTime":1700649538000,"steps":[],"to":{"arrival":1700649654000,"departure":1700649655000,"lat":1.3485936158,"lon":103.839567616,"name":"MARYMOUNT MRT STATION","stopCode":"CC16","stopId":"FERRY:CC16","stopIndex":15,"stopSequence":16,"vertexType":"TRANSIT"},"transitLeg":true,"tripId":"CC-1-4014"},{"agencyTimeZoneOffset":28800000,"arrivalDelay":0,"departureDelay":0,"distance":728.119,"duration":620,"endTime":1700650275000,"from":{"arrival":1700649654000,"departure":1700649655000,"lat":1.3485936158,"lon":103.839567616,"name":"MARYMOUNT MRT STATION","stopCode":"CC16","stopId":"FERRY:CC16","stopIndex":15,"stopSequence":16,"vertexType":"TRANSIT"},"interlineWithPreviousLeg":false,"intermediateStops":[],"legGeometry":{"length":183,"points":"ukfGgdxxR_AJEbAF@D?H@BADF@@@BBHBR@D?LAD?DAN?D@B@D?J@N@L?DBH?DDN?B@H?HAR?R?BAB?@CDCDKFSPOHMDMFMHMFKHMHKHIFIHIHIHIHGHGHQPl@n@UPOJQLQLOLQJOLQL?@AB?@A@?@?@?B?@?@?@@BA?IDC@ID???AA????AA??A??A??AA???A??AA?A???A???A???A???A@??A?A??@A???A@A???A@A?A@A?A@A?A@C?A@C@C@C@C@C??@A?A???A@A???A??@A?????A??@C?A?A@A?A@C?A@u@PQDMBA@OD??@@??@@?@??@@?@???@?@??@@?@?????????????@????@??????@????@?@J"},"mode":"WALK","numIntermediateStops":1,"pathway":false,"realTime":false,"rentedBike":false,"route":"","startTime":1700649655000,"steps":[{"absoluteDirection":"NORTH","area":false,"bogusName":true,"distance":728.119,"elevation":[],"lat":1.348593616,"lon":103.839567616,"relativeDirection":"DEPART","stayOn":false,"streetName":"path"}],"to":{"arrival":1700650275000,"lat":1.3514635239,"lon":103.8353445998,"name":"Destination","orig":"","vertexType":"NORMAL"},"transitLeg":false}],"startTime":1700648432000,"tooSloped":false,"transfers":1,"transitTime":820,"waitingTime":102,"walkDistance":1034.0725789318,"walkLimitExceeded":false,"walkTime":921},{"duration":1901,"elevationGained":0,"elevationLost":0,"endTime":1700650396000,"fare":"1.45","legs":[{"agencyTimeZoneOffset":28800000,"arrivalDelay":0,"departureDelay":0,"distance":858.249,"duration":701,"endTime":1700649196000,"from":{"departure":1700648495000,"lat":1.3015210187,"lon":103.836429655,"name":"Origin","orig":"","vertexType":"NORMAL"},"interlineWithPreviousLeg":false,"intermediateStops":[],"legGeometry":{"length":51,"points":"ie}FwpwxRTSVm@PL@PBBBCTP?@?DXVTTDH@BDBFDTXLVFNDVAJ?DERMf@EFIHKDK@E@EA?DVP\\PKVABABOTi@v@m@p@wArAqClCBD\\XDDkAnA@BGHs@v@CBkAtA]f@"},"mode":"WALK","numIntermediateStops":1,"pathway":false,"realTime":false,"rentedBike":false,"route":"","startTime":1700648495000,"steps":[{"absoluteDirection":"SOUTHEAST","area":false,"bogusName":true,"distance":858.249,"elevation":[],"lat":1.301495459,"lon":103.836443586,"relativeDirection":"DEPART","stayOn":false,"streetName":"path"}],"to":{"arrival":1700649196000,"departure":1700649197000,"lat":1.3032349615,"lon":103.831373771,"name":"ORCHARD MRT STATION","stopCode":"TE14","stopId":"FERRY:TE14","stopIndex":8,"stopSequence":9,"vertexType":"TRANSIT"},"transitLeg":false},{"agencyId":"SMRT","agencyName":"SMRT Corporation","agencyTimeZoneOffset":28800000,"agencyUrl":"http:\/\/www.smrt.com.sg\/","arrivalDelay":0,"departureDelay":0,"distance":7813.5546728217,"duration":841,"endTime":1700650038000,"from":{"arrival":1700649196000,"departure":1700649197000,"lat":1.3032349615,"lon":103.831373771,"name":"ORCHARD MRT STATION","stopCode":"TE14","stopId":"FERRY:TE14","stopIndex":8,"stopSequence":9,"vertexType":"TRANSIT"},"interlineWithPreviousLeg":false,"intermediateStops":[{"arrival":1700649274000,"departure":1700649304000,"lat":1.3023642356,"lon":103.823663902,"name":"ORCHARD BOULEVARD MRT STATION","stopCode":"TE13","stopId":"FERRY:TE13","stopIndex":9,"stopSequence":10,"vertexType":"TRANSIT"},{"arrival":1700649372000,"departure":1700649402000,"lat":1.3065862494,"lon":103.818876539,"name":"NAPIER MRT STATION","stopCode":"TE12","stopId":"FERRY:TE12","stopIndex":10,"stopSequence":11,"vertexType":"TRANSIT"},{"arrival":1700649537000,"departure":1700649567000,"lat":1.3194784377,"lon":103.825619092,"name":"STEVENS MRT STATION","stopCode":"TE11","stopId":"FERRY:TE11","stopIndex":11,"stopSequence":12,"vertexType":"TRANSIT"},{"arrival":1700649698000,"departure":1700649728000,"lat":1.3284757919,"lon":103.83495613,"name":"MOUNT PLEASANT MRT STATION","stopCode":"TE10","stopId":"FERRY:TE10","stopIndex":12,"stopSequence":13,"vertexType":"TRANSIT"},{"arrival":1700649836000,"departure":1700649866000,"lat":1.3373770398,"lon":103.840170472,"name":"CALDECOTT MRT STATION","stopCode":"TE9","stopId":"FERRY:TE9","stopIndex":13,"stopSequence":14,"vertexType":"TRANSIT"}],"legGeometry":{"length":2365,"points":"ao}FsovxRCBuAdAEBCBCBEBCBEBCDCBEBCBCBSRQROTOTMVMVKVIVIXGXEXEXCZCXAZ?X@Z@XBXDZDXFXHXHVJVJVLVNTNTPRBDBBDBBDBBBBDBBDBBBBDBBDBBDBBBBDDBBBBBDDBBBBBBDDBBBBBDBBPRNTNTJTLVJTHXHVFV?F@D@D@D@D?D@D@D?F@D@D?D@D@DHx@^|CZpCBZ@Z@X??A^?^C^C^E^E^I\\I^I\\MZM\\MZQZQXQXSXUVUTWVWRWRYR[P[N[L]L[L]H_@J]F_@D_@D_@D_@@G?G@E?G?G?G?E?G?G?G?C?}B@A?_D@[?G?E?G?E?G?E?G?E?G?E?G?E?G?EAG?E?G?EA]A]E[E[E[I[I[KYKYMYMWQWOUSUQUUSSQWQUCEEEAECECECECECECECECEAECECECEAECECEWg@CEAECECECEAECECECECECECEAECECECCCECEQWQUSSUSSSWQUQWOYOEAECECEAECECEAGCEAECEAECEAGCEAEAECEAgBo@IAGCGCGCGCGCGCGCGCGCGC[M[MYOYQGCGEGCEEGCGEEEGCGEEEGCaKwGECCCECECCCEACCECECCCEAECECCCWKWKWKYIYGYGYEYC[CYA[?Y?G@E?E?E?C@aDPC?}CV??G?E@??E?G@E?A?C?G?E@E?G?E?E?E?E?E?E?G?E?G?EAE?G?EAE?GAE?EAG?EAEAG?EAEAGAEAEAEAGAEAEAEAGAEAEAECEAEAEAGCEAEAECqAa@s@WGAGCICGCGCGAGCGCICGCGCIEGCGCGCGCGCGCGCGEGCEAcGoCo@Y??A?AA??A??AA?A??AA?A??AA???AAA???AAA??AA???AAA???AAA???AA??A?AA??A?AA??AA??A?AA??A??AA?A??AA?A??AA??AA?A??AA???AAA??AA???AAA???AA??AAA???AA??AAA???AA??A?AA??AA??A?AA??AA??A??AECECECECEEECECCEECECEECCEECCEEECCEEECCCEEECECCEECECECECEEECECECECECEAECECECECEAECGCEAECEAGCE?A??AA?A???AAA???A?AA??A?AA??A???AAA???A?AA??A?A??AA?A???AAA???A?AA??A?A??AA?A???AAA???A?A??AA?A???AAA?A???A?AA??A?A??AA?A???A?AA??A?A??AA?A???A?AA??A?A???AAA???A?AA??A?A???AAA?A???A?AA??A?AiGsYc@sBa@_CeAsEa@iB?AAA?A???AAA?A???AAA?A?A??AA?A?A?AA??A?A?A??AA?A?A?AA??A?A?AA??A?AG[G[?A?A??AA?A?A?A??AA?A?A?A??AA?A?A?A??AA?A?A?A??AA?A?A?A??AA?A?A???AUwA???A?AA??A?A???A?AA??A?A?A???AAA???A?A???AAA???A?A??AA?A?A???A?AA??A?A???A?AA??A?A???AAA?A???A?AA??A?A???A?AA??A?A???AAA???A?AA??A?A???AAA?A???A?AA??A?A??AA?A???A?AA??A?A??AA?A???AAA???A?AA?IYKYKWMWOUOUQUQSSSSQSQUOUMUMWMWKWIYIYGYEYEYCYCA?A?A???A?A???A?A?A???A?A???AAA?A???A?A?q@???A?A?A???A?A???A?A?A???A?A???A?A???A?A?A???A?A???A?A?A???A?A???A?A?A???A?A???A?wA@Q@sCBoA@gJF]@aFD\\A_@@sCBA???A?????A???A???A???A???A???A???A???A???A???A?????A@??A???A???A???A???A???A???A???A?E@E?G?E@E@E?G@E?E@G@E@E?E@G@E@E@E@E@G@E@E@E@EBA?????A??@A???A???A@????A???A??@A???A????@A???A???A@????A???A@??A?????A??@A???A????@A???A???A@????A???A@??A???A@????A???A@????A???A@??A?????A@??A???A??@??A???A@??A?????A@??A???A??@??A???A??@A?????A@??A???A??@??A???A??@A?????A??@A???A??@??A???A??@A?????A??@A???A????@A???A???A@????A???A@??A?????A@??A???A??@??A???A??@A?????A??@A???A????@A???A???A@??A?????A??@A???A????@A???A???A??@E@G@E@EBG@E@E@G@E@G@E@E@G?E@G@E@G?E@G?E@G?E@G???A???A??@A?????A???A???A???A???A???A???A???A???A?????A???A@??A???A???A???A???A???A???A???A?????A???A???A???A???A???A???A???A???A?????A???A???A???A??@A???A???A???A???A???A?????A???A???A???A?{A@??A???A???A?A???A???A???A???A???A???A???A@??A???A???A???A???A???A???A???A???A???A???A?A???A???A???A???A???A???A???A???A???A???A@??A???A???A???A???A???A???A???A???A?A???A???A???G@G?G@E?G@G?G@G@E?G@G@G@E?G@G@G@E@A??@A???A???A???A@??A???A???A??@A???A???A???A@??A???A???A@??A???A???A??@A???A???A??@A???A?????A@??A???A???A@??A???A???A@??A???A???A@??A???A???A@??A???A???A@??A?????E@IBKBG@C@??A?A??@A???A???????A@A???A???A@A???????A???A@A???A???A??@A?A???A??@A?A???A???A@A???A???A@A???A???A?A@??A???A???A@A???A?A?????A@??A???A?A???A@??G@G?E@G@E@G?G@E???G@E?E@??A?A???A???A?A???A?A???A??@A?A???A?A???A???A?A???A???A?A???????A?A???A???A@A???A???A?A???A?A???A???A?A???A?A???A???A?A???????A???A?A???A?A???A???A?A???A???A?A@??A?A???A???A?A???A?A???????A???A?A???A???Q?W???c@@??W?A???A???A?A???A???A???A?A???A???A???A?A???A???A???A?A???A???A???A?A???A???A@??A?A???A???A???A?A???A???A???A?A???A???A???A???A?A???A???A???A?A???A@??A???A?A???A???A???A?A???A???A???A?A???A??@G?G?E@G?G@E?G@G@E?G@G@??E@G@G@G@E@G@G@G@E@A??@A???A?A???A@??A???A??@A???A???A@A???A???A??@A???A???A@??A?A???A@??A???A??@A???A??@A???A?A??@A???A???A@??A???A??@A???A??@A?A???A??@A???A???A@??A???A@??A???A??@A?A???A@??A???A??@A???A???A@sC|@A???A???A@??A?A??@A???A??@A???A???A@??A?A??@A???A???A@??A???A@??A?A??@A???A???A@??A???A@??A?A??@A???A??@A???A???A@??A?A??@A???A??@A???A??@A???A??@A?A???A@E@GBGBGBGBGBGBEDGBGBGBEBGDGBEBGDEBGDGBEDGB???@A??@A???A@??A??@A???A@??A??@A????@A??@A???A@??A??@A???A@???@A???A@??A??@A???A@???@A???A@??A??@A???A@??A@????A@??A??@A??@A???A@????A@??A??@A??@A???A@??iCnB?@A???A@??A??@A????@A??@A???A@??A??@??A??@A??@A???A@????A@??A??@A???A@???@A???A@??A??@A????@A???A@??A??@A???A@???@A???A@??A??@A???A@????A@??A??@A???A@??A??@??GDGBEDGBEBGDGBEDGBGBEBGBGDGBGBEBGBA???A??@A???A??@A???A??@A???A??@A???A??@A???A?A@??A???A@??A???A@??A???A@??A???A@??A???A@??A???A??@A?A???A@??A???A@??A???A@??A???A??@A???A??@A???A?A@??A???A@??wAd@??A@??A???A@A???A??@A???A???A@??A???A@??A???A@??A???A@??A???A??@A???A??@A???A??@A?A???A@??A???A??@A???A??@A???A??@A???A??@A???A??@A???A??@A???A??@A???A??@A???A?GBGBEBGDGBGBEBGBGDEBGBGDEBGDEBGDEBGDEBGDEDEBGDEDEDGDEDEBEDEDEDEDEFEDEDEDEDEDEFEDEDCFEDEDCFEDEFCDEFCDEFCDCFEF????A@???@??A@???@A??@??A@???@??A@???@A???ABw@`B"},"mode":"TRAM","numIntermediateStops":6,"pathway":false,"realTime":false,"rentedBike":false,"route":"TE","routeId":"TE","routeLongName":"THOMSON-EAST COAST LINE","routeShortName":"TE","routeType":0,"serviceDate":"20231122","startTime":1700649197000,"steps":[],"to":{"arrival":1700650038000,"departure":1700650039000,"lat":1.3542788096,"lon":103.833148841,"name":"UPPER THOMSON MRT STATION","stopCode":"TE8","stopId":"FERRY:TE8","stopIndex":14,"stopSequence":15,"vertexType":"TRANSIT"},"transitLeg":true,"tripId":"TE-2-4006"},{"agencyTimeZoneOffset":28800000,"arrivalDelay":0,"departureDelay":0,"distance":436.681,"duration":357,"endTime":1700650396000,"from":{"arrival":1700650038000,"departure":1700650039000,"lat":1.3542788096,"lon":103.833148841,"name":"UPPER THOMSON MRT STATION","stopCode":"TE8","stopId":"FERRY:TE8","stopIndex":14,"stopSequence":15,"vertexType":"TRANSIT"},"interlineWithPreviousLeg":false,"intermediateStops":[],"legGeometry":{"length":89,"points":"sngGu{vxRn@{@DELOj@s@p@}@@??A????@???@A????@CRQBA?CPM@A@A@A@A@A?A@ABC@ABC@CBC@CBCFKHIFKHIHIHIHIFEDGFEDEFGFEDEPMRKRKPKTIRGTGTGJCDA??@@??@@?@??@@?@???@?@??@@?@?????????????@????@??????@????@?@J"},"mode":"WALK","numIntermediateStops":1,"pathway":false,"realTime":false,"rentedBike":false,"route":"","startTime":1700650039000,"steps":[{"absoluteDirection":"SOUTHEAST","area":false,"bogusName":true,"distance":436.681,"elevation":[],"lat":1.3541837801,"lon":103.8330727749,"relativeDirection":"DEPART","stayOn":false,"streetName":"path"}],"to":{"arrival":1700650396000,"lat":1.3514635239,"lon":103.8353445998,"name":"Destination","orig":"","vertexType":"NORMAL"},"transitLeg":false}],"startTime":1700648495000,"tooSloped":false,"transfers":0,"transitTime":841,"waitingTime":2,"walkDistance":1295.3386466034,"walkLimitExceeded":false,"walkTime":1058},{"duration":1922,"elevationGained":0,"elevationLost":0,"endTime":1700650354000,"fare":"1.45","legs":[{"agencyTimeZoneOffset":28800000,"arrivalDelay":0,"departureDelay":0,"distance":305.472,"duration":271,"endTime":1700648703000,"from":{"departure":1700648432000,"lat":1.3015210187,"lon":103.836429655,"name":"Origin","orig":"","vertexType":"NORMAL"},"interlineWithPreviousLeg":false,"intermediateStops":[],"legGeometry":{"length":24,"points":"ie}FwpwxRTSVm@k@g@KICAIIw@q@GAYOGEBC?EJUBEHSFKJWJ]HYRg@FOBKFB"},"mode":"WALK","numIntermediateStops":1,"pathway":false,"realTime":false,"rentedBike":false,"route":"","startTime":1700648432000,"steps":[{"absoluteDirection":"SOUTHEAST","area":false,"bogusName":true,"distance":305.472,"elevation":[],"lat":1.301495459,"lon":103.836443586,"relativeDirection":"DEPART","stayOn":false,"streetName":"path"}],"to":{"arrival":1700648703000,"departure":1700648704000,"lat":1.301542625,"lon":103.838524819,"name":"path","vertexType":"NORMAL"},"transitLeg":false},{"agencyTimeZoneOffset":28800000,"arrivalDelay":0,"departureDelay":0,"distance":166.8862856634,"duration":10,"endTime":1700648714000,"from":{"arrival":1700648703000,"departure":1700648704000,"lat":1.3015426245,"lon":103.838524818,"name":"OPP SOMERSET STN","vertexType":"NORMAL"},"interlineWithPreviousLeg":false,"intermediateStops":[],"legGeometry":{"length":2,"points":"se}Fw}wxRhGkC"},"mode":"WALK","numIntermediateStops":1,"pathway":false,"realTime":false,"rentedBike":false,"route":"","startTime":1700648704000,"steps":[{"absoluteDirection":"SOUTHEAST","area":false,"bogusName":false,"distance":166.8862856634,"elevation":[],"lat":1.3015426245,"lon":103.838524818,"relativeDirection":"CONTINUE","stayOn":false,"streetName":"Transfer"}],"to":{"arrival":1700648714000,"departure":1700648714000,"lat":1.300213166,"lon":103.839221465,"name":"SOMERSET MRT STATION","stopCode":"NS23","stopId":"FERRY:NS23","stopIndex":5,"stopSequence":6,"vertexType":"TRANSIT"},"transitLeg":false},{"agencyId":"SMRT","agencyName":"SMRT Corporation","agencyTimeZoneOffset":28800000,"agencyUrl":"http:\/\/www.smrt.com.sg\/","arrivalDelay":0,"departureDelay":0,"distance":2031.8414237392,"duration":209,"endTime":1700648923000,"from":{"arrival":1700648714000,"departure":1700648714000,"lat":1.300213166,"lon":103.839221465,"name":"SOMERSET MRT STATION","stopCode":"NS23","stopId":"FERRY:NS23","stopIndex":5,"stopSequence":6,"vertexType":"TRANSIT"},"interlineWithPreviousLeg":false,"intermediateStops":[{"arrival":1700648796000,"departure":1700648826000,"lat":1.3038150312,"lon":103.832272194,"name":"ORCHARD MRT STATION","stopCode":"NS22","stopId":"FERRY:NS22","stopIndex":6,"stopSequence":7,"vertexType":"TRANSIT"}],"legGeometry":{"length":79,"points":"c}|FabxxRAJc@|CWvAYzAIn@Ir@Al@?j@Dr@^jDFt@@n@An@Ch@Gf@Mn@Ql@Sd@OZWb@W\\[\\YV_@X[R]Pa@Nw@Vs@N}@Hm@BiCJQ?sCJQ?Q?Q?Q?QAQAQAQCQCOCQCQEOEQE_@O}MwEo@W_@OOGOGOIOGOIMIOIMIMKMIMKMKMKKKMKKMMKKMKMIKKMIOU[]k@_JqOYe@"},"mode":"SUBWAY","numIntermediateStops":2,"pathway":false,"realTime":false,"rentedBike":false,"route":"NS","routeId":"NS","routeLongName":"NORTH SOUTH LINE","routeShortName":"NS","routeType":1,"serviceDate":"20231122","startTime":1700648714000,"steps":[],"to":{"arrival":1700648923000,"departure":1700648923000,"lat":1.3125291106,"lon":103.838036234,"name":"NEWTON MRT STATION","stopCode":"NS21","stopId":"FERRY:NS21","stopIndex":7,"stopSequence":8,"vertexType":"TRANSIT"},"transitLeg":true,"tripId":"NS-1-4015"},{"agencyTimeZoneOffset":28800000,"arrivalDelay":0,"departureDelay":0,"distance":31.6683086701,"duration":10,"endTime":1700648933000,"from":{"arrival":1700648923000,"departure":1700648923000,"lat":1.3125291106,"lon":103.838036234,"name":"NEWTON MRT STATION","stopCode":"NS21","stopId":"FERRY:NS21","stopIndex":7,"stopSequence":8,"vertexType":"TRANSIT"},"interlineWithPreviousLeg":false,"intermediateStops":[],"legGeometry":{"length":2,"points":"gj_GuzwxRWs@"},"mode":"WALK","numIntermediateStops":1,"pathway":false,"realTime":false,"rentedBike":false,"route":"","startTime":1700648923000,"steps":[{"absoluteDirection":"NORTHEAST","area":false,"bogusName":false,"distance":31.6683086701,"elevation":[],"lat":1.3125291106,"lon":103.838036234,"relativeDirection":"DEPART","stayOn":false,"streetName":"Transfer"}],"to":{"arrival":1700648933000,"departure":1700648996000,"lat":1.3126426254,"lon":103.838297502,"name":"NEWTON STN EXIT A","stopCode":"40181","stopId":"FERRY:40181","stopIndex":16,"stopSequence":17,"vertexType":"TRANSIT"},"transitLeg":false},{"agencyId":"SBST","agencyName":"SBS Transit","agencyTimeZoneOffset":28800000,"agencyUrl":"http:\/\/www.sbstransit.com.sg\/","arrivalDelay":0,"departureDelay":0,"distance":4953.7477441969,"duration":1152,"endTime":1700650148000,"from":{"arrival":1700648933000,"departure":1700648996000,"lat":1.3126426254,"lon":103.838297502,"name":"NEWTON STN EXIT A","stopCode":"40181","stopId":"FERRY:40181","stopIndex":16,"stopSequence":17,"vertexType":"TRANSIT"},"interlineWithPreviousLeg":false,"intermediateStops":[{"arrival":1700649054000,"departure":1700649084000,"lat":1.3145816493,"lon":103.840531903,"name":"OPP NEWTON LIFE CH","stopCode":"40121","stopId":"FERRY:40121","stopIndex":17,"stopSequence":18,"vertexType":"TRANSIT"},{"arrival":1700649127000,"departure":1700649157000,"lat":1.3174350002,"lon":103.841437899,"name":"OPP HOTEL ROYAL","stopCode":"50061","stopId":"FERRY:50061","stopIndex":18,"stopSequence":19,"vertexType":"TRANSIT"},{"arrival":1700649244000,"departure":1700649274000,"lat":1.3212730729,"lon":103.841771724,"name":"OPP NOVENA CH","stopCode":"50031","stopId":"FERRY:50031","stopIndex":19,"stopSequence":20,"vertexType":"TRANSIT"},{"arrival":1700649317000,"departure":1700649347000,"lat":1.3236233333,"lon":103.841615457,"name":"NOVENA LODGE","stopCode":"50041","stopId":"FERRY:50041","stopIndex":20,"stopSequence":21,"vertexType":"TRANSIT"},{"arrival":1700649376000,"departure":1700649406000,"lat":1.3256128334,"lon":103.841861487,"name":"THOMSON MED CTR","stopCode":"50051","stopId":"FERRY:50051","stopIndex":21,"stopSequence":22,"vertexType":"TRANSIT"},{"arrival":1700649449000,"departure":1700649479000,"lat":1.3277044799,"lon":103.840954722,"name":"OPP TAN TONG MENG TWR","stopCode":"51011","stopId":"FERRY:51011","stopIndex":22,"stopSequence":23,"vertexType":"TRANSIT"},{"arrival":1700649536000,"departure":1700649566000,"lat":1.330325,"lon":103.839258889,"name":"OLD POLICE ACAD","stopCode":"51021","stopId":"FERRY:51021","stopIndex":23,"stopSequence":24,"vertexType":"TRANSIT"},{"arrival":1700649610000,"departure":1700649640000,"lat":1.3322325362,"lon":103.838388933,"name":"S'PORE POLO CLUB","stopCode":"51031","stopId":"FERRY:51031","stopIndex":24,"stopSequence":25,"vertexType":"TRANSIT"},{"arrival":1700649712000,"departure":1700649742000,"lat":1.3363535273,"lon":103.83707802,"name":"AFT ANDREW RD","stopCode":"51051","stopId":"FERRY:51051","stopIndex":25,"stopSequence":26,"vertexType":"TRANSIT"},{"arrival":1700649842000,"departure":1700649872000,"lat":1.34219257,"lon":103.835965765,"name":"MACRITCHIE RESERVOIR","stopCode":"51071","stopId":"FERRY:51071","stopIndex":26,"stopSequence":27,"vertexType":"TRANSIT"},{"arrival":1700649944000,"departure":1700649974000,"lat":1.3455535114,"lon":103.838263355,"name":"ST. THERESA'S HME","stopCode":"53011","stopId":"FERRY:53011","stopIndex":27,"stopSequence":28,"vertexType":"TRANSIT"},{"arrival":1700650061000,"departure":1700650091000,"lat":1.3490410831,"lon":103.837084936,"name":"LAKEVIEW EST","stopCode":"53021","stopId":"FERRY:53021","stopIndex":28,"stopSequence":29,"vertexType":"TRANSIT"}],"legGeometry":{"length":162,"points":"kj_Gw|wxRk@cAa@@SEIGy@kAAGASDSsDgEi@m@EC??{@i@wA_@k@KOC[EKCkBYqAUaCc@IAGA_@Iq@O_@Mm@]a@g@GGiAyAS[y@q@e@Mo@Ag@F}BbBi@b@g@^}@f@EBA@IBMD??WJc@LuA^Y@K?k@?uAI_@CEAu@GMA_@CC?iBOcAKKAeBKeACi@@??U@m@De@Je@JI@KD}Ap@_A`@G@OHsAf@??k@TcFtB_@Pe@Rk@^g@j@m@r@q@r@??KJeAj@a@J]JmBj@C@oBj@A@??sBl@{Bn@KBo@\\uBdBo@ZgB`@s@?q@EiCSEAKA{BU_ACmBDa@?a@A{AHsBNkANa@Nw@`@oA~@cAp@eB~@a@Dc@?]N_@s@?AuAmCgAyC_@s@]g@oC_@_FSiBKKAgAGyDUuAXy@X}BlAULUJmAn@eAj@?@GBiA`Aq@l@aA|@q@d@WLYLSLeCj@ODUHk@Py@\\g@Xa@TQPcAdAIJi@n@"},"mode":"BUS","numIntermediateStops":13,"pathway":false,"realTime":false,"rentedBike":false,"route":"162","routeId":"162","routeLongName":"SBST BUS 162","routeShortName":"162","routeType":3,"serviceDate":"20231122","startTime":1700648996000,"steps":[],"to":{"arrival":1700650148000,"departure":1700650149000,"lat":1.3530783161,"lon":103.83436396,"name":"BEF THOMSON RIDGE","stopCode":"53041","stopId":"FERRY:53041","stopIndex":29,"stopSequence":30,"vertexType":"TRANSIT"},"transitLeg":true,"tripId":"162-2-3005"},{"agencyTimeZoneOffset":28800000,"arrivalDelay":0,"departureDelay":0,"distance":248.575,"duration":205,"endTime":1700650354000,"from":{"arrival":1700650148000,"departure":1700650149000,"lat":1.3530783161,"lon":103.83436396,"name":"BEF THOMSON RIDGE","stopCode":"53041","stopId":"FERRY:53041","stopIndex":29,"stopSequence":30,"vertexType":"TRANSIT"},"interlineWithPreviousLeg":false,"intermediateStops":[],"legGeometry":{"length":64,"points":"uggGwcwxR@@BC@ABC@CBC@CBCFKHIFKHIHIHIHIFEDGFEDEFGFEDEPMRKRKPKTIRGTGTGJCDA??@@??@@?@??@@?@???@?@??@@?@?????????????@????@??????@????@?@J"},"mode":"WALK","numIntermediateStops":1,"pathway":false,"realTime":false,"rentedBike":false,"route":"","startTime":1700650149000,"steps":[{"absoluteDirection":"SOUTHWEST","area":false,"bogusName":true,"distance":248.575,"elevation":[],"lat":1.353078316,"lon":103.834363959,"relativeDirection":"DEPART","stayOn":false,"streetName":"path"}],"to":{"arrival":1700650354000,"lat":1.3514635239,"lon":103.8353445998,"name":"Destination","orig":"","vertexType":"NORMAL"},"transitLeg":false}],"startTime":1700648432000,"tooSloped":false,"transfers":1,"transitTime":1361,"waitingTime":65,"walkDistance":554.2951202927,"walkLimitExceeded":false,"walkTime":496}],"to":{"lat":1.3514635239,"lon":103.8353445998,"name":"Destination","orig":"","vertexType":"NORMAL"}},"requestParameters":{"arriveBy":"false","date":"11-22-2023","fromPlace":"1.30152101873533,103.836429655016","maxTransfers":"3","maxWalkDistance":"1000","mode":"TRANSIT,WALK","numItineraries":"3","otherThanPreferredRoutesPenalty":"0","preferredRoutes":"1__CC,1__DT,1__EW,1__NE,1__NS,1__PE,1__PW,1__SE,1__SS,1__SW,1__CG,1__BP","showIntermediateStops":"true","time":"6:18pm","toPlace":"1.35146352387757,103.835344599828","transferPenalty":"1","waitAtBeginningFactor":"0.5","walkReluctance":"2"}}],"user_exist_in_db":true},{"index":1,"Itinerary":[[1.2931,103.852],"Mount Emily Park","PastaMania - Northpoint"],"POICategories":[["NA","NA","NA"],["nonfood","Parks","City Parks"],["food","NA","NA"]],"VehicleMode":"Public Transport","Coords":[[1.2931,103.852],[1.30249879,103.8416633],[1.4292441433,103.8361072314]],"StartTimePOI":[["Fri, 22 Sep 2023 10:00:00 GMT"],["Fri, 22 Sep 2023 12:03:05 GMT"]],"ReachTimePOI":[["Fri, 22 Sep 2023 11:03:05 GMT"],["Fri, 22 Sep 2023 14:54:57 GMT"]],"LeaveTimePOI":[["Fri, 22 Sep 2023 12:03:05 GMT"],["Fri, 22 Sep 2023 15:54:57 GMT"]],"TotalTime":"5h 54min","Total distance(km)":6.1165145413,"Routes":[{"debugOutput":{"pathCalculationTime":37,"pathTimes":[13,11,13],"precalculationTime":48,"renderingTime":0,"timedOut":false,"totalTime":85},"elevationMetadata":{"ellipsoidToGeoidDifference":7.3773084369,"geoidElevation":false},"plan":{"date":1700648280000,"from":{"lat":1.2931,"lon":103.852,"name":"Origin","orig":"","vertexType":"NORMAL"},"itineraries":[{"duration":747,"elevationGained":0,"elevationLost":0,"endTime":1700649192000,"fare":"0.99","legs":[{"agencyTimeZoneOffset":28800000,"arrivalDelay":0,"departureDelay":0,"distance":86.153,"duration":65,"endTime":1700648510000,"from":{"departure":1700648445000,"lat":1.2931,"lon":103.852,"name":"Origin","orig":"","vertexType":"NORMAL"},"interlineWithPreviousLeg":false,"intermediateStops":[],"legGeometry":{"length":4,"points":"yp{F}qzxRXm@[k@f@]"},"mode":"WALK","numIntermediateStops":1,"pathway":false,"realTime":false,"rentedBike":false,"route":"","startTime":1700648445000,"steps":[{"absoluteDirection":"SOUTHEAST","area":false,"bogusName":false,"distance":86.153,"elevation":[],"lat":1.2930931031,"lon":103.8519960097,"relativeDirection":"DEPART","stayOn":false,"streetName":"path"}],"to":{"arrival":1700648510000,"departure":1700648511000,"lat":1.2929048315,"lon":103.852596374,"name":"CITY HALL MRT STATION","stopCode":"NS25","stopId":"FERRY:NS25","stopIndex":3,"stopSequence":4,"vertexType":"TRANSIT"},"transitLeg":false},{"agencyId":"SMRT","agencyName":"SMRT Corporation","agencyTimeZoneOffset":28800000,"agencyUrl":"http:\/\/www.smrt.com.sg\/","arrivalDelay":0,"departureDelay":0,"distance":965.1493796816,"duration":79,"endTime":1700648590000,"from":{"arrival":1700648510000,"departure":1700648511000,"lat":1.2929048315,"lon":103.852596374,"name":"CITY HALL MRT STATION","stopCode":"NS25","stopId":"FERRY:NS25","stopIndex":3,"stopSequence":4,"vertexType":"TRANSIT"},"interlineWithPreviousLeg":false,"intermediateStops":[],"legGeometry":{"length":13,"points":"io{FguzxR??eE`COJo@`@sBvAiIrFaBrAuAbBaAvAgAzBe@zA{A|G"},"mode":"SUBWAY","numIntermediateStops":1,"pathway":false,"realTime":false,"rentedBike":false,"route":"NS","routeId":"NS","routeLongName":"NORTH SOUTH LINE","routeShortName":"NS","routeType":1,"serviceDate":"20231122","startTime":1700648511000,"steps":[],"to":{"arrival":1700648590000,"departure":1700648590000,"lat":1.2986887229,"lon":103.846122838,"name":"DHOBY GHAUT MRT STATION","stopCode":"NS24","stopId":"FERRY:NS24","stopIndex":4,"stopSequence":5,"vertexType":"TRANSIT"},"transitLeg":true,"tripId":"NS-1-4015"},{"agencyTimeZoneOffset":28800000,"arrivalDelay":0,"departureDelay":0,"distance":132.7833508889,"duration":20,"endTime":1700648610000,"from":{"arrival":1700648590000,"departure":1700648590000,"lat":1.2986887229,"lon":103.846122838,"name":"DHOBY GHAUT MRT STATION","stopCode":"NS24","stopId":"FERRY:NS24","stopIndex":4,"stopSequence":5,"vertexType":"TRANSIT"},"interlineWithPreviousLeg":false,"intermediateStops":[],"legGeometry":{"length":2,"points":"ws|FgmyxR{DtC"},"mode":"WALK","numIntermediateStops":1,"pathway":false,"realTime":false,"rentedBike":false,"route":"","startTime":1700648590000,"steps":[{"absoluteDirection":"NORTHWEST","area":false,"bogusName":false,"distance":132.7833508889,"elevation":[],"lat":1.2986887229,"lon":103.846122838,"relativeDirection":"DEPART","stayOn":false,"streetName":"Transfer"}],"to":{"arrival":1700648610000,"departure":1700648611000,"lat":1.2996206158,"lon":103.845375944,"name":"DHOBY GHAUT MRT STATION","vertexType":"NORMAL"},"transitLeg":false},{"agencyTimeZoneOffset":28800000,"arrivalDelay":0,"departureDelay":0,"distance":732.217,"duration":581,"endTime":1700649192000,"from":{"arrival":1700648610000,"departure":1700648611000,"lat":1.2996206158,"lon":103.8453759441,"name":"path","vertexType":"NORMAL"},"interlineWithPreviousLeg":false,"intermediateStops":[],"legGeometry":{"length":48,"points":"sy|FqhyxRn@SKXAR@F@@B@GXOn@On@ERI\\ADB@Qx@]jAU`AEPCDC?A?u@KWEQCQEKGA?CCEIEGEGGMIIKKQIOCK?QBIBMHIDOLILMNi@bAoA|BYh@u@tA"},"mode":"WALK","numIntermediateStops":1,"pathway":false,"realTime":false,"rentedBike":false,"route":"","startTime":1700648611000,"steps":[{"absoluteDirection":"SOUTHEAST","area":false,"bogusName":true,"distance":732.217,"elevation":[],"lat":1.2996206158,"lon":103.8453759441,"relativeDirection":"HARD_LEFT","stayOn":false,"streetName":"path"}],"to":{"arrival":1700649192000,"lat":1.30249879,"lon":103.8416633,"name":"Destination","orig":"","vertexType":"NORMAL"},"transitLeg":false}],"startTime":1700648445000,"tooSloped":false,"transfers":0,"transitTime":79,"waitingTime":2,"walkDistance":818.5436842049,"walkLimitExceeded":false,"walkTime":666},{"duration":1111,"elevationGained":0,"elevationLost":0,"endTime":1700649436000,"fare":"0.99","legs":[{"agencyTimeZoneOffset":28800000,"arrivalDelay":0,"departureDelay":0,"distance":468.249,"duration":383,"endTime":1700648708000,"from":{"departure":1700648325000,"lat":1.2931,"lon":103.852,"name":"Origin","orig":"","vertexType":"NORMAL"},"interlineWithPreviousLeg":false,"intermediateStops":[],"legGeometry":{"length":23,"points":"yp{F}qzxRXm@[k@f@]??@m@KEKGUKa@SGeCA_@EeAOaAEYA?[MVe@Ve@Tc@R]DIEA"},"mode":"WALK","numIntermediateStops":1,"pathway":false,"realTime":false,"rentedBike":false,"route":"","startTime":1700648325000,"steps":[{"absoluteDirection":"SOUTHEAST","area":false,"bogusName":false,"distance":468.249,"elevation":[],"lat":1.2930931031,"lon":103.8519960097,"relativeDirection":"DEPART","stayOn":false,"streetName":"path"}],"to":{"arrival":1700648708000,"departure":1700648709000,"lat":1.2931861923,"lon":103.855534707,"name":"ESPLANADE MRT STATION","stopCode":"CC3","stopId":"FERRY:CC3","stopIndex":25,"stopSequence":27,"vertexType":"TRANSIT"},"transitLeg":false},{"agencyId":"SMRT","agencyName":"SMRT Corporation","agencyTimeZoneOffset":28800000,"agencyUrl":"http:\/\/www.smrt.com.sg\/","arrivalDelay":0,"departureDelay":0,"distance":1172.7406753513,"duration":125,"endTime":1700648834000,"from":{"arrival":1700648708000,"departure":1700648709000,"lat":1.2931861923,"lon":103.855534707,"name":"ESPLANADE MRT STATION","stopCode":"CC3","stopId":"FERRY:CC3","stopIndex":25,"stopSequence":27,"vertexType":"TRANSIT"},"interlineWithPreviousLeg":false,"intermediateStops":[{"arrival":1700648764000,"departure":1700648794000,"lat":1.296812442,"lon":103.850894978,"name":"BRAS BASAH MRT STATION","stopCode":"CC2","stopId":"FERRY:CC2","stopIndex":26,"stopSequence":28,"vertexType":"TRANSIT"}],"legGeometry":{"length":14,"points":"uq{Fgh{xRgAvBo@bAaGdIyAzBiAvBsBlCg@n@]b@}ApBmAlBo@zBs@xCcBfH"},"mode":"SUBWAY","numIntermediateStops":2,"pathway":false,"realTime":false,"rentedBike":false,"route":"CC","routeId":"CC","routeLongName":"CIRCLE LINE","routeShortName":"CC","routeType":1,"serviceDate":"20231122","startTime":1700648709000,"steps":[],"to":{"arrival":1700648834000,"departure":1700648834000,"lat":1.2987970718,"lon":103.846678821,"name":"DHOBY GHAUT MRT STATION","stopCode":"CC1","stopId":"FERRY:CC1","stopIndex":27,"stopSequence":29,"vertexType":"TRANSIT"},"transitLeg":true,"tripId":"CC-2-4001"},{"agencyTimeZoneOffset":28800000,"arrivalDelay":0,"departureDelay":0,"distance":171.3574091118,"duration":20,"endTime":1700648854000,"from":{"arrival":1700648834000,"departure":1700648834000,"lat":1.2987970718,"lon":103.846678821,"name":"DHOBY GHAUT MRT STATION","stopCode":"CC1","stopId":"FERRY:CC1","stopIndex":27,"stopSequence":29,"vertexType":"TRANSIT"},"interlineWithPreviousLeg":false,"intermediateStops":[],"legGeometry":{"length":2,"points":"mt|FupyxReDbG"},"mode":"WALK","numIntermediateStops":1,"pathway":false,"realTime":false,"rentedBike":false,"route":"","startTime":1700648834000,"steps":[{"absoluteDirection":"NORTHWEST","area":false,"bogusName":false,"distance":171.3574091118,"elevation":[],"lat":1.2987970718,"lon":103.846678821,"relativeDirection":"DEPART","stayOn":false,"streetName":"Transfer"}],"to":{"arrival":1700648854000,"departure":1700648855000,"lat":1.2996206158,"lon":103.845375944,"name":"DHOBY GHAUT MRT STATION","vertexType":"NORMAL"},"transitLeg":false},{"agencyTimeZoneOffset":28800000,"arrivalDelay":0,"departureDelay":0,"distance":732.217,"duration":581,"endTime":1700649436000,"from":{"arrival":1700648854000,"departure":1700648855000,"lat":1.2996206158,"lon":103.8453759441,"name":"path","vertexType":"NORMAL"},"interlineWithPreviousLeg":false,"intermediateStops":[],"legGeometry":{"length":48,"points":"sy|FqhyxRn@SKXAR@F@@B@GXOn@On@ERI\\ADB@Qx@]jAU`AEPCDC?A?u@KWEQCQEKGA?CCEIEGEGGMIIKKQIOCK?QBIBMHIDOLILMNi@bAoA|BYh@u@tA"},"mode":"WALK","numIntermediateStops":1,"pathway":false,"realTime":false,"rentedBike":false,"route":"","startTime":1700648855000,"steps":[{"absoluteDirection":"SOUTHEAST","area":false,"bogusName":true,"distance":732.217,"elevation":[],"lat":1.2996206158,"lon":103.8453759441,"relativeDirection":"HARD_LEFT","stayOn":false,"streetName":"path"}],"to":{"arrival":1700649436000,"lat":1.30249879,"lon":103.8416633,"name":"Destination","orig":"","vertexType":"NORMAL"},"transitLeg":false}],"startTime":1700648325000,"tooSloped":false,"transfers":0,"transitTime":125,"waitingTime":2,"walkDistance":1200.8276541237,"walkLimitExceeded":false,"walkTime":984},{"duration":1927,"elevationGained":0,"elevationLost":0,"endTime":1700650320000,"fare":"1.29","legs":[{"agencyTimeZoneOffset":28800000,"arrivalDelay":0,"departureDelay":0,"distance":237.462,"duration":199,"endTime":1700648592000,"from":{"departure":1700648393000,"lat":1.2931,"lon":103.852,"name":"Origin","orig":"","vertexType":"NORMAL"},"interlineWithPreviousLeg":false,"intermediateStops":[],"legGeometry":{"length":16,"points":"yp{F}qzxR??DN?@v@^EF?Fg@YkAo@GICBQ\\CFMJs@nAEF"},"mode":"WALK","numIntermediateStops":1,"pathway":false,"realTime":false,"rentedBike":false,"route":"","startTime":1700648393000,"steps":[{"absoluteDirection":"WEST","area":false,"bogusName":false,"distance":237.462,"elevation":[],"lat":1.2930931031,"lon":103.8519960097,"relativeDirection":"DEPART","stayOn":false,"streetName":"path"}],"to":{"arrival":1700648592000,"departure":1700648593000,"lat":1.2939544417,"lon":103.851390966,"name":"CAPITOL BLDG","stopCode":"04111","stopId":"FERRY:04111","stopIndex":23,"stopSequence":25,"vertexType":"TRANSIT"},"transitLeg":false},{"agencyId":"GAS","agencyName":"Go-Ahead Singapore","agencyTimeZoneOffset":28800000,"agencyUrl":"http:\/\/www.go-aheadsingapore.com\/","arrivalDelay":0,"departureDelay":0,"distance":5358.9136702295,"duration":1255,"endTime":1700649848000,"from":{"arrival":1700648592000,"departure":1700648593000,"lat":1.2939544417,"lon":103.851390966,"name":"CAPITOL BLDG","stopCode":"04111","stopId":"FERRY:04111","stopIndex":23,"stopSequence":25,"vertexType":"TRANSIT"},"interlineWithPreviousLeg":false,"intermediateStops":[{"arrival":1700648651000,"departure":1700648681000,"lat":1.2961854409,"lon":103.8495803,"name":"SMU","stopCode":"04121","stopId":"FERRY:04121","stopIndex":24,"stopSequence":26,"vertexType":"TRANSIT"},{"arrival":1700648724000,"departure":1700648754000,"lat":1.2981101424,"lon":103.847806369,"name":"YMCA","stopCode":"08041","stopId":"FERRY:08041","stopIndex":25,"stopSequence":27,"vertexType":"TRANSIT"},{"arrival":1700648797000,"departure":1700648827000,"lat":1.2983115378,"lon":103.84525696,"name":"DHOBY GHAUT STN EXIT B","stopCode":"08031","stopId":"FERRY:08031","stopIndex":26,"stopSequence":28,"vertexType":"TRANSIT"},{"arrival":1700648899000,"departure":1700648929000,"lat":1.2998692872,"lon":103.840937461,"name":"WINSLAND HSE","stopCode":"08111","stopId":"FERRY:08111","stopIndex":27,"stopSequence":29,"vertexType":"TRANSIT"},{"arrival":1700648972000,"departure":1700649002000,"lat":1.3002756933,"lon":103.838776185,"name":"SOMERSET STN","stopCode":"08121","stopId":"FERRY:08121","stopIndex":28,"stopSequence":30,"vertexType":"TRANSIT"},{"arrival":1700649046000,"departure":1700649076000,"lat":1.3004425176,"lon":103.836238042,"name":"SOMERSET YOUTH PK","stopCode":"09059","stopId":"FERRY:09059","stopIndex":29,"stopSequence":31,"vertexType":"TRANSIT"},{"arrival":1700649148000,"departure":1700649178000,"lat":1.3025283477,"lon":103.832397843,"name":"ORCHARD STN EXIT 13","stopCode":"09022","stopId":"FERRY:09022","stopIndex":30,"stopSequence":32,"vertexType":"TRANSIT"},{"arrival":1700649250000,"departure":1700649280000,"lat":1.3045375262,"lon":103.829145296,"name":"OPP FOUR SEASONS HOTEL","stopCode":"09111","stopId":"FERRY:09111","stopIndex":31,"stopSequence":33,"vertexType":"TRANSIT"},{"arrival":1700649352000,"departure":1700649382000,"lat":1.3048865312,"lon":103.825497558,"name":"AFT CUSCADEN RD","stopCode":"09191","stopId":"FERRY:09191","stopIndex":32,"stopSequence":34,"vertexType":"TRANSIT"},{"arrival":1700649396000,"departure":1700649426000,"lat":1.3060811032,"lon":103.825813676,"name":"AFT TOMLINSON RD","stopCode":"09159","stopId":"FERRY:09159","stopIndex":33,"stopSequence":35,"vertexType":"TRANSIT"},{"arrival":1700649469000,"departure":1700649499000,"lat":1.3070135326,"lon":103.828355073,"name":"DELFI ORCHARD","stopCode":"09169","stopId":"FERRY:09169","stopIndex":34,"stopSequence":36,"vertexType":"TRANSIT"},{"arrival":1700649542000,"departure":1700649572000,"lat":1.3058796624,"lon":103.830490046,"name":"ROYAL THAI EMBASSY","stopCode":"09179","stopId":"FERRY:09179","stopIndex":35,"stopSequence":37,"vertexType":"TRANSIT"},{"arrival":1700649616000,"departure":1700649646000,"lat":1.3044606521,"lon":103.832944672,"name":"ORCHARD STN\/TANG PLAZA","stopCode":"09047","stopId":"FERRY:09047","stopIndex":36,"stopSequence":38,"vertexType":"TRANSIT"},{"arrival":1700649718000,"departure":1700649748000,"lat":1.302340042,"lon":103.837012534,"name":"BEF CAIRNHILL RD","stopCode":"09037","stopId":"FERRY:09037","stopIndex":37,"stopSequence":39,"vertexType":"TRANSIT"}],"legGeometry":{"length":131,"points":"iv{FgnzxRKP{AnC}@dB[|@_CkAS?O@KDUR[b@_@b@A@??UR[R]P{@f@{@l@oB`CgArA??CDQZGVB\\BVDJ`@b@\\d@FRBNAf@M`Aw@vDm@vCc@dBe@v@sA|B[h@Wr@Up@UdBGd@]hC??QpAIv@YxBc@hD??w@fGIb@O|@Kj@Mn@lAfA??PP^`@F^Ft@q@xBmAtByGxGkAjA??QRk@t@{AhBe@p@cAtBYv@OX[l@q@jBGb@Il@??Iv@@bBLjANx@f@rAh@`A|BrCw@\\_EpAk@T??mC`Aq@oA]m@uC_Fi@_AYs@Ig@Ls@^}@??LYLYd@gAnBmEHUf@iA??HO`B{D\\y@t@}AnAkC??j@mAdByDJ[~CgHXg@n@qAd@cAJ[@?p@eBFOhBeFHS`@gBl@kCh@gC^eBd@yB"},"mode":"BUS","numIntermediateStops":15,"pathway":false,"realTime":false,"rentedBike":false,"route":"36","routeId":"36","routeLongName":"GAS BUS 36","routeShortName":"36","routeType":3,"serviceDate":"20231122","startTime":1700648593000,"steps":[],"to":{"arrival":1700649848000,"departure":1700649849000,"lat":1.3004785731,"lon":103.841847006,"name":"CONCORDE HOTEL S'PORE","stopCode":"08138","stopId":"FERRY:08138","stopIndex":38,"stopSequence":40,"vertexType":"TRANSIT"},"transitLeg":true,"tripId":"36-1-3003"},{"agencyTimeZoneOffset":28800000,"arrivalDelay":0,"departureDelay":0,"distance":582.931,"duration":471,"endTime":1700650320000,"from":{"arrival":1700649848000,"departure":1700649849000,"lat":1.3004785731,"lon":103.841847006,"name":"CONCORDE HOTEL S'PORE","stopCode":"08138","stopId":"FERRY:08138","stopIndex":38,"stopSequence":40,"vertexType":"TRANSIT"},"interlineWithPreviousLeg":false,"intermediateStops":[],"legGeometry":{"length":41,"points":"}~|ForxxREAT_AVgATaA?C@GDQ?AC??ADU@CA?u@KWEQCQEKGA?CCEIEGEGGMIIKKQIOCK?QBIBMHIDOLILMNi@bAoA|BYh@u@tA"},"mode":"WALK","numIntermediateStops":1,"pathway":false,"realTime":false,"rentedBike":false,"route":"","startTime":1700649849000,"steps":[{"absoluteDirection":"NORTH","area":false,"bogusName":true,"distance":582.931,"elevation":[],"lat":1.3004785731,"lon":103.841847006,"relativeDirection":"DEPART","stayOn":false,"streetName":"path"}],"to":{"arrival":1700650320000,"lat":1.30249879,"lon":103.8416633,"name":"Destination","orig":"","vertexType":"NORMAL"},"transitLeg":false}],"startTime":1700648393000,"tooSloped":false,"transfers":0,"transitTime":1255,"waitingTime":2,"walkDistance":820.7102932228,"walkLimitExceeded":false,"walkTime":670}],"to":{"lat":1.30249879,"lon":103.8416633,"name":"Destination","orig":"","vertexType":"NORMAL"}},"requestParameters":{"arriveBy":"false","date":"11-22-2023","fromPlace":"1.2931,103.852","maxTransfers":"3","maxWalkDistance":"600","mode":"TRANSIT,WALK","numItineraries":"3","otherThanPreferredRoutesPenalty":"0","preferredRoutes":"1__CC,1__DT,1__EW,1__NE,1__NS,1__PE,1__PW,1__SE,1__SS,1__SW,1__CG,1__BP","showIntermediateStops":"true","time":"6:18pm","toPlace":"1.30249879,103.8416633","transferPenalty":"7200","waitAtBeginningFactor":"0.5","walkReluctance":"2"}},{"debugOutput":{"pathCalculationTime":67,"pathTimes":[48,9,10],"precalculationTime":67,"renderingTime":1,"timedOut":false,"totalTime":135},"elevationMetadata":{"ellipsoidToGeoidDifference":7.3773084369,"geoidElevation":false},"plan":{"date":1700648280000,"from":{"lat":1.30249879,"lon":103.8416633,"name":"Origin","orig":"","vertexType":"NORMAL"},"itineraries":[{"duration":2615,"elevationGained":0,"elevationLost":0,"endTime":1700650994000,"fare":"1.85","legs":[{"agencyTimeZoneOffset":28800000,"arrivalDelay":0,"departureDelay":0,"distance":804.348,"duration":630,"endTime":1700649009000,"from":{"departure":1700648379000,"lat":1.30249879,"lon":103.8416633,"name":"Origin","orig":"","vertexType":"NORMAL"},"interlineWithPreviousLeg":false,"intermediateStops":[],"legGeometry":{"length":57,"points":"}l}FerxxRt@uAXi@nA}Bh@cALOHMNMHELIHCPCJ?NBPHJJHHFLDFDFDHBB@?JFPDPBVDt@J@?B?BEDQTaA\\kAPy@CA@EH]DSNo@No@FYBIBO??BIBCFY@GDQ??HMBA@Cj@c@PMb@Y"},"mode":"WALK","numIntermediateStops":1,"pathway":false,"realTime":false,"rentedBike":false,"route":"","startTime":1700648379000,"steps":[{"absoluteDirection":"SOUTHEAST","area":false,"bogusName":false,"distance":804.348,"elevation":[],"lat":1.302713841,"lon":103.8417957405,"relativeDirection":"DEPART","stayOn":false,"streetName":"path"}],"to":{"arrival":1700649009000,"departure":1700649010000,"lat":1.2986887229,"lon":103.846122838,"name":"DHOBY GHAUT MRT STATION","stopCode":"NS24","stopId":"FERRY:NS24","stopIndex":4,"stopSequence":5,"vertexType":"TRANSIT"},"transitLeg":false},{"agencyId":"SMRT","agencyName":"SMRT Corporation","agencyTimeZoneOffset":28800000,"agencyUrl":"http:\/\/www.smrt.com.sg\/","arrivalDelay":0,"departureDelay":0,"distance":16434.17102803,"duration":1753,"endTime":1700650763000,"from":{"arrival":1700649009000,"departure":1700649010000,"lat":1.2986887229,"lon":103.846122838,"name":"DHOBY GHAUT MRT STATION","stopCode":"NS24","stopId":"FERRY:NS24","stopIndex":4,"stopSequence":5,"vertexType":"TRANSIT"},"interlineWithPreviousLeg":false,"intermediateStops":[{"arrival":1700649074000,"departure":1700649104000,"lat":1.300213166,"lon":103.839221465,"name":"SOMERSET MRT STATION","stopCode":"NS23","stopId":"FERRY:NS23","stopIndex":5,"stopSequence":6,"vertexType":"TRANSIT"},{"arrival":1700649186000,"departure":1700649216000,"lat":1.3038150312,"lon":103.832272194,"name":"ORCHARD MRT STATION","stopCode":"NS22","stopId":"FERRY:NS22","stopIndex":6,"stopSequence":7,"vertexType":"TRANSIT"},{"arrival":1700649313000,"departure":1700649343000,"lat":1.3125291106,"lon":103.838036234,"name":"NEWTON MRT STATION","stopCode":"NS21","stopId":"FERRY:NS21","stopIndex":7,"stopSequence":8,"vertexType":"TRANSIT"},{"arrival":1700649435000,"departure":1700649465000,"lat":1.3204583552,"lon":103.843842645,"name":"NOVENA MRT STATION","stopCode":"NS20","stopId":"FERRY:NS20","stopIndex":8,"stopSequence":9,"vertexType":"TRANSIT"},{"arrival":1700649582000,"departure":1700649612000,"lat":1.3324628752,"lon":103.84758934,"name":"TOA PAYOH MRT STATION","stopCode":"NS19","stopId":"FERRY:NS19","stopIndex":9,"stopSequence":10,"vertexType":"TRANSIT"},{"arrival":1700649683000,"departure":1700649713000,"lat":1.340158424,"lon":103.846746851,"name":"BRADDELL MRT STATION","stopCode":"NS18","stopId":"FERRY:NS18","stopIndex":10,"stopSequence":11,"vertexType":"TRANSIT"},{"arrival":1700649808000,"departure":1700649838000,"lat":1.3508268528,"lon":103.848180082,"name":"BISHAN MRT STATION","stopCode":"NS17","stopId":"FERRY:NS17","stopIndex":11,"stopSequence":12,"vertexType":"TRANSIT"},{"arrival":1700650026000,"departure":1700650056000,"lat":1.3698565752,"lon":103.849580276,"name":"ANG MO KIO MRT STATION","stopCode":"NS16","stopId":"FERRY:NS16","stopIndex":12,"stopSequence":13,"vertexType":"TRANSIT"},{"arrival":1700650172000,"departure":1700650202000,"lat":1.3817273127,"lon":103.844960567,"name":"YIO CHU KANG MRT STATION","stopCode":"NS15","stopId":"FERRY:NS15","stopIndex":13,"stopSequence":14,"vertexType":"TRANSIT"},{"arrival":1700650593000,"departure":1700650623000,"lat":1.41758906,"lon":103.833061043,"name":"KHATIB MRT STATION","stopCode":"NS14","stopId":"FERRY:NS14","stopIndex":14,"stopSequence":15,"vertexType":"TRANSIT"}],"legGeometry":{"length":805,"points":"qs|FemyxR?@iA|EIh@SrAIh@Gn@{@pIm@xFmA~IAJc@|CWvAYzAIn@Ir@Al@?j@Dr@^jDFt@@n@An@Ch@Gf@Mn@Ql@Sd@OZWb@W\\[\\YV_@X[R]Pa@Nw@Vs@N}@Hm@BiCJQ?sCJQ?Q?Q?Q?QAQAQAQCQCOCQCQEOEQE_@O}MwEo@W_@OOGOGOIOGOIMIOIMIMKMIMKMKMKKKMKKMMKKMKMIKKMIOU[]k@_JqOYe@eCiEy@iAaAgAw@u@w@q@_Am@}@g@_Bm@aAWeAS}ASaCYo@Mw@U{@[OGMGOIOIMIMIOKMIYW[W[W}GaGCCgFoEk@e@WSMK[U]U]SMI]SOIOG]Q_@QOGOGa@OOG_@Ma@Ma@KOEc@KOEc@Ia@Ic@Ga@GWC]EuEa@u@Gc@GOCi@I[Gc@Ga@Ka@Is@QiD}@a@Ka@Ic@IUE]EQCQAQAQAQAQAQ?Q?Q@Q?Q@Q@Q@Q@Q@QBc@DmEl@c@FcDb@{ATk@Jm@N}@Vo@VeAd@cBp@y@T}@PcAJ_ABcAAs@Eu@Ke@Is@Q_A[m@Qm@Ku@IwCKc@AgDIc@AY?mD?u@?u@@iFHu@@c@?e@Ac@AQAc@COCc@Ec@EeRgCuL_B??mDe@aGw@QCOCQCQEGAIAOEQCOEQEOEQGOEOGOGMECAOGMGOIOGIEEC}DkBMGOGOIOGMIOGOIOGMIOIOIA?MGcT_LOIMIOG??OIOGOGOIOGKECAOGOGOEQGMEA?OEQEQEOEQCQCQCQAQCOAQAQAS?QAQ?Q@Q?Q@Q?Q@QBQ@OBQBQBQBODQDQDODODKDE@OFOFOFOFOFOHOFGDEBc`@vQYN{BdAOFOHOFOFOF??OFOFQDODQDODQDQBOBQBC?MBQ@Q@QBQ@K@E?wQjA}Ij@Q@Q@QBQ@Q@C@M@QBQBOBQBQDODQDODQDODQFODOFOFOHOFOFOHMHOHMHMHOJMHMJGDEDKJMJMJKJMJ?@KH{HjHCBoBhBMJKLMJKHA@MHMJMHMJOHOFMHOHOFOFOF??QDOFODOFA?yFbBQFGBG@oRrFOFODQDOFODKDC@QFOFOFOFOFOHMHOFOHMHOHMJMHMHMJMJMJMJMJKJMJKJKLKLKJKLKLKLILKLILGHADILINILINILEJCByJvQsPzZILINILGLA@ILINILILKNILKLILKLKLKLILKLKJMLKJKLKJMLKJMJKJMJMJKJMJMJMJMHMJOHMJMHMHOHMHOHMHOHOHMHOFOHOFOFOHOFOFOFOFOFQDOFODQFODOFQDODQDODQDQBODQBQDOBQBQDQBQBO@QBQBQ@QBQ@QBQ@Q@Q@Q@Q@E?K?Q@Q@Q?Q?Q@Q?Q?Q?QAQ?Q?QAQ?QAQAQ?QAQAQCQAQAQAQCKACAQA??QCQCQCQEOCQCQEOEQEOEQEOEQEOGQEMEAAOGOGOGOGMEAA_@OQGOGOEOGOGQECAKEQEOEQCOEQCQCQCQAQAQCO?A?QAQAQ?Q?Q?Q?O?A?c@?Q?Q?Q?Q?QAQ?KAE?QAQAQCQAQCQCQCOEQEOEQEOEQEOGOGOGOIOGOIMICAKGMIMKMIMKMIMKCAKGMKMKMIMKMIIGCAOKMIOIMGOIOIA?MGOGOIOGOGOGIEEAcIaDOGOGOGEAICQGGCGAOGQEOEICGAOGQEOEGCGCQEKECAOGOGOGKECAqCgAk@UeCaAOIOGOGMEAAOGECIEMGOIOIECIE]QOIMIOGOIOGA?MGOGOGOGQEOGQEOEQEOCQEQCQCOCQCQAQAQCA?O?QAQAQAQ?QAA?O?s^w@Q?SAQ?O?A?Q?Q?C?M?Q?Q@Q?C@M?Q?Q@Q?C?M?M?C?Q?Q?QAM?C?uCE"},"mode":"SUBWAY","numIntermediateStops":11,"pathway":false,"realTime":false,"rentedBike":false,"route":"NS","routeId":"NS","routeLongName":"NORTH SOUTH LINE","routeShortName":"NS","routeType":1,"serviceDate":"20231122","startTime":1700649010000,"steps":[],"to":{"arrival":1700650763000,"departure":1700650763000,"lat":1.4293799713,"lon":103.834987051,"name":"YISHUN MRT STATION","stopCode":"NS13","stopId":"FERRY:NS13","stopIndex":15,"stopSequence":17,"vertexType":"TRANSIT"},"transitLeg":true,"tripId":"NS-1-4017"},{"agencyTimeZoneOffset":28800000,"arrivalDelay":0,"departureDelay":0,"distance":53.144288054,"duration":10,"endTime":1700650773000,"from":{"arrival":1700650763000,"departure":1700650763000,"lat":1.4293799713,"lon":103.834987051,"name":"YISHUN MRT STATION","stopCode":"NS13","stopId":"FERRY:NS13","stopIndex":15,"stopSequence":17,"vertexType":"TRANSIT"},"interlineWithPreviousLeg":false,"intermediateStops":[],"legGeometry":{"length":2,"points":"qdvGsgwxRC_B"},"mode":"WALK","numIntermediateStops":1,"pathway":false,"realTime":false,"rentedBike":false,"route":"","startTime":1700650763000,"steps":[{"absoluteDirection":"EAST","area":false,"bogusName":false,"distance":53.144288054,"elevation":[],"lat":1.4293799713,"lon":103.834987051,"relativeDirection":"DEPART","stayOn":false,"streetName":"Transfer"}],"to":{"arrival":1700650773000,"departure":1700650774000,"lat":1.4293988744,"lon":103.835464763,"name":"YISHUN STN EXIT E","vertexType":"NORMAL"},"transitLeg":false},{"agencyTimeZoneOffset":28800000,"arrivalDelay":0,"departureDelay":0,"distance":259.783,"duration":220,"endTime":1700650994000,"from":{"arrival":1700650773000,"departure":1700650774000,"lat":1.4293973584,"lon":103.8354915469,"name":"path","vertexType":"NORMAL"},"interlineWithPreviousLeg":false,"intermediateStops":[],"legGeometry":{"length":12,"points":"udvGyjwxRH@?M?Q@a@[?BmCZ?\\?@s@H?CdB"},"mode":"WALK","numIntermediateStops":1,"pathway":false,"realTime":false,"rentedBike":false,"route":"","startTime":1700650774000,"steps":[{"absoluteDirection":"SOUTH","area":false,"bogusName":true,"distance":259.783,"elevation":[],"lat":1.4293973584,"lon":103.8354915469,"relativeDirection":"RIGHT","stayOn":false,"streetName":"path"}],"to":{"arrival":1700650994000,"lat":1.4292441433,"lon":103.8361072314,"name":"Destination","orig":"","vertexType":"NORMAL"},"transitLeg":false}],"startTime":1700648379000,"tooSloped":false,"transfers":0,"transitTime":1753,"waitingTime":2,"walkDistance":1064.3825037513,"walkLimitExceeded":false,"walkTime":860},{"duration":3804,"elevationGained":0,"elevationLost":0,"endTime":1700652110000,"fare":"info unavailable","legs":[{"agencyTimeZoneOffset":28800000,"arrivalDelay":0,"departureDelay":0,"distance":804.348,"duration":630,"endTime":1700648936000,"from":{"departure":1700648306000,"lat":1.30249879,"lon":103.8416633,"name":"Origin","orig":"","vertexType":"NORMAL"},"interlineWithPreviousLeg":false,"intermediateStops":[],"legGeometry":{"length":57,"points":"}l}FerxxRt@uAXi@nA}Bh@cALOHMNMHELIHCPCJ?NBPHJJHHFLDFDFDHBB@?JFPDPBVDt@J@?B?BEDQTaA\\kAPy@CA@EH]DSNo@No@FYBIBO??BIBCFY@GDQ??HMBA@Cj@c@PMb@Y"},"mode":"WALK","numIntermediateStops":1,"pathway":false,"realTime":false,"rentedBike":false,"route":"","startTime":1700648306000,"steps":[{"absoluteDirection":"SOUTHEAST","area":false,"bogusName":false,"distance":804.348,"elevation":[],"lat":1.302713841,"lon":103.8417957405,"relativeDirection":"DEPART","stayOn":false,"streetName":"path"}],"to":{"arrival":1700648936000,"departure":1700648937000,"lat":1.298688723,"lon":103.846122838,"name":"path","vertexType":"NORMAL"},"transitLeg":false},{"agencyTimeZoneOffset":28800000,"arrivalDelay":0,"departureDelay":0,"distance":104.9971647091,"duration":10,"endTime":1700648947000,"from":{"arrival":1700648936000,"departure":1700648937000,"lat":1.2986887229,"lon":103.846122838,"name":"DHOBY GHAUT MRT STATION","vertexType":"NORMAL"},"interlineWithPreviousLeg":false,"intermediateStops":[],"legGeometry":{"length":2,"points":"ws|FgmyxRhAlD"},"mode":"WALK","numIntermediateStops":1,"pathway":false,"realTime":false,"rentedBike":false,"route":"","startTime":1700648937000,"steps":[{"absoluteDirection":"SOUTHWEST","area":false,"bogusName":false,"distance":104.9971647091,"elevation":[],"lat":1.2986887229,"lon":103.846122838,"relativeDirection":"HARD_RIGHT","stayOn":false,"streetName":"Transfer"}],"to":{"arrival":1700648947000,"departure":1700648947000,"lat":1.2983115378,"lon":103.84525696,"name":"DHOBY GHAUT STN EXIT B","stopCode":"08031","stopId":"FERRY:08031","stopIndex":9,"stopSequence":10,"vertexType":"TRANSIT"},"transitLeg":false},{"agencyId":"TTS","agencyName":"Tower Transit Services","agencyTimeZoneOffset":28800000,"agencyUrl":"http:\/\/towertransit.sg\/","arrivalDelay":0,"departureDelay":0,"distance":13684.840941031,"duration":2709,"endTime":1700651656000,"from":{"arrival":1700648947000,"departure":1700648947000,"lat":1.2983115378,"lon":103.84525696,"name":"DHOBY GHAUT STN EXIT B","stopCode":"08031","stopId":"FERRY:08031","stopIndex":9,"stopSequence":10,"vertexType":"TRANSIT"},"interlineWithPreviousLeg":false,"intermediateStops":[{"arrival":1700651510000,"departure":1700651540000,"lat":1.4127774717,"lon":103.830839587,"name":"OPP YISHUN SPORTS HALL","stopCode":"59031","stopId":"FERRY:59031","stopIndex":10,"stopSequence":11,"vertexType":"TRANSIT"}],"legGeometry":{"length":187,"points":"{p|FugyxRm@vCc@dBe@v@sA|B[h@{B_@w@KoAQu@Ms@d@UVET[xAyDzDwAlAcBvAqAr@gAZ_ATaANq@DcBAmAKe@K}EcB_B}AsAqBmAuB_CaDyBsB_BiA}CmAoBc@kBWaD_@oCs@sBs@eCmAyCwBkAmAw@aAkAcByAoC}CqI}EsNu@wBeBoDaA}AkBqC}@iA}@eA{AqA{LoKeLiMyCiCmBeAgC}@{Bc@wAUoAEo@?iKByXVmCByA?kCJuDVcC^yCt@_Dv@}ElA_HdBqLvCmHhBaa@|JsDh@{DToBByAAwDO}C]iB_@e@IsAYop@uPmEkAaDi@sBOeC@iBJcBR}AVcErA}Bv@eKbDwEdAsEn@qD\\yDN_CByABqV[yPP}MR{CDcBBoGFoNh@qCD}BH{ANkAXwAf@{AnAs@x@s@hAc@bA[dAGd@Kt@EjABdAHpAt@|BpBxGb@pCRdBJlCE|HOvKElCDvEPvE\\bFd@hEr@nFlCrPdBrGBJt@|Bl@fAjBbCXl@P`A@\\Cv@EPGX]t@QVk@h@oA`@}AVQFG@aAd@_@ZaCbDy@XcE|E{BfBA?c@VeB~@_@TA?aGvBoDx@}Iv@iHAqAGkGs@y@OyCaAkCeAcK_EoAg@MGMEsBw@iKcE??{`@{OOGwGiC??"},"mode":"BUS","numIntermediateStops":2,"pathway":false,"realTime":false,"rentedBike":false,"route":"663","routeId":"663","routeLongName":"TTS BUS 663","routeShortName":"663","routeType":3,"serviceDate":"20231122","startTime":1700648947000,"steps":[],"to":{"arrival":1700651656000,"departure":1700651666000,"lat":1.419642251,"lon":103.834330057,"name":"BLK 790","stopCode":"59051","stopId":"FERRY:59051","stopIndex":11,"stopSequence":12,"vertexType":"TRANSIT"},"transitLeg":true,"tripId":"663-2-3006"},{"agencyId":"SBST","agencyName":"SBS Transit","agencyTimeZoneOffset":28800000,"agencyUrl":"http:\/\/www.sbstransit.com.sg\/","arrivalDelay":0,"departureDelay":0,"distance":1074.4358689398,"duration":189,"endTime":1700651855000,"from":{"arrival":1700651656000,"departure":1700651666000,"lat":1.419642251,"lon":103.834330057,"name":"BLK 790","stopCode":"59051","stopId":"FERRY:59051","stopIndex":25,"stopSequence":26,"vertexType":"TRANSIT"},"interlineWithPreviousLeg":false,"intermediateStops":[{"arrival":1700651767000,"departure":1700651797000,"lat":1.4255639923,"lon":103.834958206,"name":"BLK 763","stopCode":"59061","stopId":"FERRY:59061","stopIndex":26,"stopSequence":27,"vertexType":"TRANSIT"}],"legGeometry":{"length":3,"points":"wgtGqcwxR_d@{BcVi@"},"mode":"BUS","numIntermediateStops":2,"pathway":false,"realTime":false,"rentedBike":false,"route":"117","routeId":"117","routeLongName":"SBST BUS 117","routeShortName":"117","routeType":3,"serviceDate":"20231122","startTime":1700651666000,"steps":[],"to":{"arrival":1700651855000,"departure":1700651856000,"lat":1.4292660688,"lon":103.835161954,"name":"YISHUN STN","stopCode":"59079","stopId":"FERRY:59079","stopIndex":27,"stopSequence":28,"vertexType":"TRANSIT"},"transitLeg":true,"tripId":"117-1-3009"},{"agencyTimeZoneOffset":28800000,"arrivalDelay":0,"departureDelay":0,"distance":301.396,"duration":254,"endTime":1700652110000,"from":{"arrival":1700651855000,"departure":1700651856000,"lat":1.4292660688,"lon":103.835161954,"name":"YISHUN STN","stopCode":"59079","stopId":"FERRY:59079","stopIndex":27,"stopSequence":28,"vertexType":"TRANSIT"},"interlineWithPreviousLeg":false,"intermediateStops":[],"legGeometry":{"length":12,"points":"{cvGwhwxR@??_A@aAQ?[?BmCZ?\\?@s@H?CdB"},"mode":"WALK","numIntermediateStops":1,"pathway":false,"realTime":false,"rentedBike":false,"route":"","startTime":1700651856000,"steps":[{"absoluteDirection":"SOUTH","area":false,"bogusName":true,"distance":301.396,"elevation":[],"lat":1.4292660688,"lon":103.835161954,"relativeDirection":"DEPART","stayOn":false,"streetName":"path"}],"to":{"arrival":1700652110000,"lat":1.4292441433,"lon":103.8361072314,"name":"Destination","orig":"","vertexType":"NORMAL"},"transitLeg":false}],"startTime":1700648306000,"tooSloped":false,"transfers":1,"transitTime":2898,"waitingTime":12,"walkDistance":1106.0252029984,"walkLimitExceeded":false,"walkTime":894},{"duration":3893,"elevationGained":0,"elevationLost":0,"endTime":1700653099000,"fare":"info unavailable","legs":[{"agencyTimeZoneOffset":28800000,"arrivalDelay":0,"departureDelay":0,"distance":804.348,"duration":630,"endTime":1700649836000,"from":{"departure":1700649206000,"lat":1.30249879,"lon":103.8416633,"name":"Origin","orig":"","vertexType":"NORMAL"},"interlineWithPreviousLeg":false,"intermediateStops":[],"legGeometry":{"length":57,"points":"}l}FerxxRt@uAXi@nA}Bh@cALOHMNMHELIHCPCJ?NBPHJJHHFLDFDFDHBB@?JFPDPBVDt@J@?B?BEDQTaA\\kAPy@CA@EH]DSNo@No@FYBIBO??BIBCFY@GDQ??HMBA@Cj@c@PMb@Y"},"mode":"WALK","numIntermediateStops":1,"pathway":false,"realTime":false,"rentedBike":false,"route":"","startTime":1700649206000,"steps":[{"absoluteDirection":"SOUTHEAST","area":false,"bogusName":false,"distance":804.348,"elevation":[],"lat":1.302713841,"lon":103.8417957405,"relativeDirection":"DEPART","stayOn":false,"streetName":"path"}],"to":{"arrival":1700649836000,"departure":1700649837000,"lat":1.298688723,"lon":103.846122838,"name":"path","vertexType":"NORMAL"},"transitLeg":false},{"agencyTimeZoneOffset":28800000,"arrivalDelay":0,"departureDelay":0,"distance":104.9971647091,"duration":10,"endTime":1700649847000,"from":{"arrival":1700649836000,"departure":1700649837000,"lat":1.2986887229,"lon":103.846122838,"name":"DHOBY GHAUT MRT STATION","vertexType":"NORMAL"},"interlineWithPreviousLeg":false,"intermediateStops":[],"legGeometry":{"length":2,"points":"ws|FgmyxRhAlD"},"mode":"WALK","numIntermediateStops":1,"pathway":false,"realTime":false,"rentedBike":false,"route":"","startTime":1700649837000,"steps":[{"absoluteDirection":"SOUTHWEST","area":false,"bogusName":false,"distance":104.9971647091,"elevation":[],"lat":1.2986887229,"lon":103.846122838,"relativeDirection":"HARD_RIGHT","stayOn":false,"streetName":"Transfer"}],"to":{"arrival":1700649847000,"departure":1700649847000,"lat":1.2983115378,"lon":103.84525696,"name":"DHOBY GHAUT STN EXIT B","stopCode":"08031","stopId":"FERRY:08031","stopIndex":9,"stopSequence":10,"vertexType":"TRANSIT"},"transitLeg":false},{"agencyId":"TTS","agencyName":"Tower Transit Services","agencyTimeZoneOffset":28800000,"agencyUrl":"http:\/\/towertransit.sg\/","arrivalDelay":0,"departureDelay":0,"distance":13684.840941031,"duration":2709,"endTime":1700652556000,"from":{"arrival":1700649847000,"departure":1700649847000,"lat":1.2983115378,"lon":103.84525696,"name":"DHOBY GHAUT STN EXIT B","stopCode":"08031","stopId":"FERRY:08031","stopIndex":9,"stopSequence":10,"vertexType":"TRANSIT"},"interlineWithPreviousLeg":false,"intermediateStops":[{"arrival":1700652410000,"departure":1700652440000,"lat":1.4127774717,"lon":103.830839587,"name":"OPP YISHUN SPORTS HALL","stopCode":"59031","stopId":"FERRY:59031","stopIndex":10,"stopSequence":11,"vertexType":"TRANSIT"}],"legGeometry":{"length":187,"points":"{p|FugyxRm@vCc@dBe@v@sA|B[h@{B_@w@KoAQu@Ms@d@UVET[xAyDzDwAlAcBvAqAr@gAZ_ATaANq@DcBAmAKe@K}EcB_B}AsAqBmAuB_CaDyBsB_BiA}CmAoBc@kBWaD_@oCs@sBs@eCmAyCwBkAmAw@aAkAcByAoC}CqI}EsNu@wBeBoDaA}AkBqC}@iA}@eA{AqA{LoKeLiMyCiCmBeAgC}@{Bc@wAUoAEo@?iKByXVmCByA?kCJuDVcC^yCt@_Dv@}ElA_HdBqLvCmHhBaa@|JsDh@{DToBByAAwDO}C]iB_@e@IsAYop@uPmEkAaDi@sBOeC@iBJcBR}AVcErA}Bv@eKbDwEdAsEn@qD\\yDN_CByABqV[yPP}MR{CDcBBoGFoNh@qCD}BH{ANkAXwAf@{AnAs@x@s@hAc@bA[dAGd@Kt@EjABdAHpAt@|BpBxGb@pCRdBJlCE|HOvKElCDvEPvE\\bFd@hEr@nFlCrPdBrGBJt@|Bl@fAjBbCXl@P`A@\\Cv@EPGX]t@QVk@h@oA`@}AVQFG@aAd@_@ZaCbDy@XcE|E{BfBA?c@VeB~@_@TA?aGvBoDx@}Iv@iHAqAGkGs@y@OyCaAkCeAcK_EoAg@MGMEsBw@iKcE??{`@{OOGwGiC??"},"mode":"BUS","numIntermediateStops":2,"pathway":false,"realTime":false,"rentedBike":false,"route":"663","routeId":"663","routeLongName":"TTS BUS 663","routeShortName":"663","routeType":3,"serviceDate":"20231122","startTime":1700649847000,"steps":[],"to":{"arrival":1700652556000,"departure":1700652582000,"lat":1.419642251,"lon":103.834330057,"name":"BLK 790","stopCode":"59051","stopId":"FERRY:59051","stopIndex":11,"stopSequence":12,"vertexType":"TRANSIT"},"transitLeg":true,"tripId":"663-2-3007"},{"agencyId":"TTS","agencyName":"Tower Transit Services","agencyTimeZoneOffset":28800000,"agencyUrl":"http:\/\/towertransit.sg\/","arrivalDelay":0,"departureDelay":0,"distance":1213.1200343192,"duration":262,"endTime":1700652844000,"from":{"arrival":1700652556000,"departure":1700652582000,"lat":1.419642251,"lon":103.834330057,"name":"BLK 790","stopCode":"59051","stopId":"FERRY:59051","stopIndex":48,"stopSequence":49,"vertexType":"TRANSIT"},"interlineWithPreviousLeg":false,"intermediateStops":[{"arrival":1700652683000,"departure":1700652713000,"lat":1.4236258286,"lon":103.83666745,"name":"OPP YISHUN CMTY HOSP","stopCode":"59611","stopId":"FERRY:59611","stopIndex":49,"stopSequence":50,"vertexType":"TRANSIT"},{"arrival":1700652756000,"departure":1700652786000,"lat":1.4255639923,"lon":103.834958206,"name":"BLK 763","stopCode":"59061","stopId":"FERRY:59061","stopIndex":50,"stopSequence":51,"vertexType":"TRANSIT"}],"legGeometry":{"length":34,"points":"mgtGedwxRCAi@SeCo@QCs@IeAIK?qFM}@CYA?S@u@GuGsAAu@Ay@AkBCUHOHOR@ZErEC~@S?eACcACmEIcGMa@AQ?uACmBEYA"},"mode":"BUS","numIntermediateStops":3,"pathway":false,"realTime":false,"rentedBike":false,"route":"858","routeId":"858","routeLongName":"TTS BUS 858","routeShortName":"858","routeType":3,"serviceDate":"20231122","startTime":1700652582000,"steps":[],"to":{"arrival":1700652844000,"departure":1700652845000,"lat":1.4292660688,"lon":103.835161954,"name":"YISHUN STN","stopCode":"59079","stopId":"FERRY:59079","stopIndex":51,"stopSequence":52,"vertexType":"TRANSIT"},"transitLeg":true,"tripId":"858-1-2070"},{"agencyTimeZoneOffset":28800000,"arrivalDelay":0,"departureDelay":0,"distance":301.396,"duration":254,"endTime":1700653099000,"from":{"arrival":1700652844000,"departure":1700652845000,"lat":1.4292660688,"lon":103.835161954,"name":"YISHUN STN","stopCode":"59079","stopId":"FERRY:59079","stopIndex":51,"stopSequence":52,"vertexType":"TRANSIT"},"interlineWithPreviousLeg":false,"intermediateStops":[],"legGeometry":{"length":12,"points":"{cvGwhwxR@??_A@aAQ?[?BmCZ?\\?@s@H?CdB"},"mode":"WALK","numIntermediateStops":1,"pathway":false,"realTime":false,"rentedBike":false,"route":"","startTime":1700652845000,"steps":[{"absoluteDirection":"SOUTH","area":false,"bogusName":true,"distance":301.396,"elevation":[],"lat":1.4292660688,"lon":103.835161954,"relativeDirection":"DEPART","stayOn":false,"streetName":"path"}],"to":{"arrival":1700653099000,"lat":1.4292441433,"lon":103.8361072314,"name":"Destination","orig":"","vertexType":"NORMAL"},"transitLeg":false}],"startTime":1700649206000,"tooSloped":false,"transfers":1,"transitTime":2971,"waitingTime":28,"walkDistance":1106.0252029984,"walkLimitExceeded":false,"walkTime":894}],"to":{"lat":1.4292441433,"lon":103.8361072314,"name":"Destination","orig":"","vertexType":"NORMAL"}},"requestParameters":{"arriveBy":"false","date":"11-22-2023","fromPlace":"1.30249879,103.8416633","maxTransfers":"3","maxWalkDistance":"1000","mode":"TRANSIT,WALK","numItineraries":"3","otherThanPreferredRoutesPenalty":"0","preferredRoutes":"1__CC,1__DT,1__EW,1__NE,1__NS,1__PE,1__PW,1__SE,1__SS,1__SW,1__CG,1__BP","showIntermediateStops":"true","time":"6:18pm","toPlace":"1.42924414326245,103.836107231373","transferPenalty":"1","waitAtBeginningFactor":"0.5","walkReluctance":"2"}}],"user_exist_in_db":true}]